9,20,244,,26
GPGSV 2: 3,3,12,17,08,223,,07,07,177,,01,06,153,,28,06,028,,0
GPGSV 3: 
nan
stack_usage: 644
$GNRMC,213447.000,A,5429.4223,N,00943.8948,E,1.25,297.07,090326,,,A,V
16839: 54294223,9438948
Delta latt: 42,-21
GPGSV 0: 3,1,12,04,76,095,19,09,64,220,23,06,59,278,30,03,41,102,,0
GPGSV 1: 3,2,12,31,26,047,18,11,22,313,22,19,20,244,,26,09,065,,0
GPGSV 2: 3,3,12,17,08,223,,07,07,177,,01,06,153,,28,06,028,,0
GPGSV 3: 
nan
stack_usage: 644
$GNRMC,213448.000,A,5429.4225,N,00943.8947,E,0.00,308.12,090326,,,A,V
16840: 54294225,9438947
Delta latt: 44,-22
GPGSV 0: 3,1,12,04,76,095,19,09,64,220,23,06,59,278,30,03,41,102,,0
GPGSV 1: 3,2,12,31,26,047,18,11,22,313,22,19,20,244,,26,09,065,,0
GPGSV 2: 3,3,12,17,08,223,,07,07,177,,01,06,153,,28,06,028,,0
GPGSV 3: 
nan
stack_usage: 644
$GNRMC,213449.000,A,5429.4224,N,00943.8949,E,0.00,308.12,090326,,,A,V
16841: 54294224,9438949
Delta latt: 43,-20
GPGSV 0: 3,1,12,04,76,095,19,09,64,220,23,06,59,278,30,03,41,102,,0
GPGSV 1: 3,2,12,31,26,047,18,11,22,313,22,19,20,244,,26,09,065,,0
GPGSV 2: 3,3,12,17,08,223,,07,07,177,,01,06,153,,28,06,028,,0
GPGSV 3: 
nan
stack_usage: 644
$GNRMC,213450.000,A,5429.4225,N,00943.8947,E,0.00,242.62,090326,,,A,V
16842: 54294225,9438947
Delta latt: 44,-22
GPGSV 0: 3,1,12,04,76,095,19,09,64,220,23,06,59,278,30,03,41,102,,0
GPGSV 1: 3,2,12,31,26,047,17,11,22,313,22,19,20,244,,26,09,065,,0
GPGSV 2: 3,3,12,17,08,223,,07,07,177,,01,06,153,,28,06,028,,0
GPGSV 3: 
nan
stack_usage: 644
$GNRMC,213451.000,A,5429.4225,N,00943.8947,E,0.00,242.62,090326,,,A,V
16843: 54294225,9438947
Delta latt: 44,-22
GPGSV 0: 3,1,12,04,76,095,19,09,64,220,22,06,59,278,30,03,41,102,,0
GPGSV 1: 3,2,12,31,26,047,17,11,22,313,21,19,20,244,,26,09,065,,0
GPGSV 2: 3,3,12,17,08,223,,07,07,177,,01,06,153,,28,06,028,,0
GPGSV 3: 
nan
stack_usage: 644
$GNRMC,213452.000,A,5429.4225,N,00943.8947,E,1.13,355.26,090326,,,A,V
16844: 54294225,9438947
Delta latt: 44,-22
GPGSV 0: 3,1,12,04,76,095,19,09,64,220,22,06,59,278,30,03,41,102,,0
GPGSV 1: 3,2,12,31,26,047,17,11,22,313,20,19,20,244,,26,09,065,,0
GPGSV 2: 3,3,12,17,08,223,,07,07,177,,01,06,153,,28,06,028,,0
GPGSV 3: 
nan
stack_usage: 644
$GNRMC,213453.000,A,5429.4239,N,00943.8955,E,1.30,0.48,090326,,,A,V
16845: 54294239,9438955
Delta latt: 58,-14
GPGSV 0: 3,1,12,04,76,095,18,09,64,220,22,06,59,278,30,03,41,102,,0
GPGSV 1: 3,2,12,31,26,047,17,11,22,313,21,19,20,244,,26,09,065,,0
GPGSV 2: 3,3,12,17,08,223,,07,07,177,,01,06,153,,28,06,028,,0
GPGSV 3: 
nan
stack_usage: 644
$GNRMC,213454.000,A,5429.4241,N,00943.8956,E,0.00,57.03,090326,,,A,V
16846: 54294241,9438956
Delta latt: 60,-13
GPGSV 0: 3,1,12,04,76,095,19,09,64,220,22,06,59,278,30,03,41,102,,0
GPGSV 1: 3,2,12,31,26,047,17,11,22,313,21,19,20,244,,26,09,065,,0
GPGSV 2: 3,3,12,17,08,223,,07,07,177,,01,06,153,,28,06,028,,0
GPGSV 3: 
nan
stack_usage: 644
$GNRMC,213455.000,A,5429.4242,N,00943.8959,E,0.00,57.03,090326,,,A,V
16847: 54294242,9438959
Delta latt: 61,-10
GPGSV 0: 3,1,12,04,76,095,19,09,64,220,22,06,59,278,30,03,41,102,,0
GPGSV 1: 3,2,12,31,26,047,17,11,22,313,21,19,20,244,,26,09,065,,0
GPGSV 2: 3,3,12,17,08,223,,07,07,177,,01,06,153,,28,06,028,,0
GPGSV 3: 
nan
stack_usage: 644
$GNRMC,213456.000,A,5429.4243,N,00943.8960,E,0.00,57.03,090326,,,A,V
16848: 54294243,9438960
Delta latt: 62,-9
GPGSV 0: 3,1,12,04,76,095,20,09,64,220,23,06,59,278,30,03,41,102,,0
GPGSV 1: 3,2,12,31,26,047,17,11,22,313,21,19,20,244,,26,09,065,,0
GPGSV 2: 3,3,12,17,08,223,,07,07,177,,01,06,153,,28,06,028,,0
GPGSV 3: 
nan
stack_usage: 644
$GNRMC,213457.000,A,5429.4243,N,00943.8960,E,0.87,294.33,090326,,,A,V
16849: 54294243,9438960
Delta latt: 62,-9
GPGSV 0: 3,1,12,04,76,095,20,09,64,220,23,06,59,278,30,03,41,102,,0
GPGSV 1: 3,2,12,31,26,047,17,11,22,313,21,19,20,244,,26,09,065,,0
GPGSV 2: 3,3,12,17,08,223,,07,07,177,,01,06,153,,28,06,028,,0
GPGSV 3: 
nan
stack_usage: 644
$GNRMC,213458.000,A,5429.4253,N,00943.8960,E,1.60,346.53,090326,,,A,V
16850: 54294253,9438960
Delta latt: 72,-9
GPGSV 0: 3,1,12,04,76,095,20,09,64,220,23,06,59,278,30,03,41,102,,0
GPGSV 1: 3,2,12,31,26,047,17,11,22,313,21,19,20,244,,26,09,065,,0
GPGSV 2: 3,3,12,17,08,223,,07,07,177,,01,06,153,,28,06,028,,0
GPGSV 3: 
nan
stack_usage: 644
$GNRMC,213459.000,A,5429.4252,N,00943.8964,E,0.00,324.79,090326,,,A,V
16851: 54294252,9438964
Delta latt: 71,-5
GPGSV 0: 3,1,12,04,76,095,20,09,64,220,23,06,59,278,30,03,41,102,,0
GPGSV 1: 3,2,12,31,26,047,17,11,22,313,21,19,20,244,,26,09,065,,0
GPGSV 2: 3,3,12,17,08,223,,07,07,177,,01,06,153,,28,06,028,,0
GPGSV 3: 
nan
stack_usage: 644
$GNRMC,213500.000,A,5429.4249,N,00943.8967,E,0.00,324.79,090326,,,A,V
16892: 54294249,9438967
Delta latt: 68,-2
GPGSV 0: 3,1,12,04,76,095,20,09,64,220,23,06,59,278,30,03,41,102,,0
GPGSV 1: 3,2,12,31,26,047,17,11,22,313,21,19,20,244,,26,09,065,,0
GPGSV 2: 3,3,12,17,08,223,,07,07,177,,01,06,153,,28,06,028,,0
GPGSV 3: 
nan
stack_usage: 644
$GNRMC,213501.000,A,5429.4248,N,00943.8965,E,1.17,255.04,090326,,,A,V
16893: 54294248,9438965
Delta latt: 67,-4
GPGSV 0: 3,1,12,04,76,095,20,09,64,220,23,06,59,278,29,03,41,102,,0
GPGSV 1: 3,2,12,31,26,047,17,11,22,313,21,19,20,244,,26,09,065,,0
GPGSV 2: 3,3,12,17,08,223,,07,07,177,,01,06,153,,28,06,028,,0
GPGSV 3: 
nan
stack_usage: 644
$GNRMC,213502.000,A,5429.4248,N,00943.8965,E,0.00,255.04,090326,,,A,V
16894: 54294248,9438965
Delta latt: 67,-4
GPGSV 0: 3,1,12,04,76,095,21,09,64,220,23,06,59,278,30,03,41,102,,0
GPGSV 1: 3,2,12,31,26,047,17,11,22,313,21,19,20,244,,26,09,065,,0
GPGSV 2: 3,3,12,17,08,223,,07,07,177,,01,06,153,,28,06,028,,0
GPGSV 3: 
nan
stack_usage: 644
$GNRMC,213503.000,A,5429.4248,N,00943.8965,E,0.00,255.04,090326,,,A,V
16895: 54294248,9438965
Delta latt: 67,-4
GPGSV 0: 3,1,12,04,76,095,21,09,64,220,23,06,59,278,30,03,41,102,,0
GPGSV 1: 3,2,12,31,26,047,17,11,22,313,20,19,20,244,,26,09,065,,0
GPGSV 2: 3,3,12,17,08,223,,07,07,177,,01,06,153,,28,06,028,,0
GPGSV 3: 
nan
stack_usage: 644
$GNRMC,213504.000,A,5429.4248,N,00943.8965,E,0.00,255.04,090326,,,A,V
16896: 54294248,9438965
Delta latt: 67,-4
GPGSV 0: 3,1,12,04,76,095,21,09,64,220,22,06,59,278,30,03,41,102,,0
GPGSV 1: 3,2,12,31,26,047,17,11,22,313,20,19,20,244,,26,09,065,,0
GPGSV 2: 3,3,12,17,08,223,,07,07,177,,01,06,153,,28,06,028,,0
GPGSV 3: 
nan
stack_usage: 644
$GNRMC,213505.000,A,5429.4248,N,00943.8965,E,0.00,255.04,090326,,,A,V
16897: 54294248,9438965
Delta latt: 67,-4
GPGSV 0: 3,1,12,04,76,095,21,09,64,220,22,06,59,278,30,03,41,102,,0
GPGSV 1: 3,2,12,31,26,047,17,11,22,313,20,19,20,244,,26,09,065,,0
GPGSV 2: 3,3,12,17,08,223,,07,07,177,,01,06,153,,28,06,028,,0
GPGSV 3: 
nan
stack_usage: 644
$GNRMC,213506.000,A,5429.4248,N,00943.8965,E,0.00,255.04,090326,,,A,V
16898: 54294248,9438965
Delta latt: 67,-4
GPGSV 0: 3,1,12,04,76,095,22,09,64,220,22,06,59,278,30,03,41,102,,0
GPGSV 1: 3,2,12,31,26,047,17,11,22,313,20,19,20,244,,26,09,065,,0
GPGSV 2: 3,3,12,17,08,223,,07,07,177,,01,06,153,,28,06,028,,0
GPGSV 3: 
nan
stack_usage: 644
$GNRMC,213507.000,A,5429.4248,N,00943.8965,E,0.00,255.04,090326,,,A,V
16899: 54294248,9438965
Delta latt: 67,-4
GPGSV 0: 3,1,12,04,76,095,22,09,64,220,24,06,59,278,30,03,41,102,,0
GPGSV 1: 3,2,12,31,26,047,16,11,22,313,20,19,20,244,,26,09,065,,0
GPGSV 2: 3,3,12,17,08,223,,07,07,177,,01,06,153,,28,06,028,,0
GPGSV 3: 
nan
stack_usage: 644
$GNRMC,213508.000,A,5429.4248,N,00943.8965,E,1.42,358.91,090326,,,A,V
16900: 54294248,9438965
Delta latt: 67,-4
GPGSV 0: 3,1,12,04,76,095,22,09,64,220,24,06,59,278,30,03,41,102,,0
GPGSV 1: 3,2,12,31,26,047,16,11,22,313,19,19,20,244,,26,09,065,,0
GPGSV 2: 3,3,12,17,08,223,,07,07,177,,01,06,153,,28,06,028,,0
GPGSV 3: 
nan
stack_usage: 644
$GNRMC,213509.000,A,5429.4248,N,00943.8965,E,0.00,255.04,090326,,,A,V
16901: 54294248,9438965
Delta latt: 67,-4
GPGSV 0: 3,1,12,04,76,095,22,09,64,220,24,06,59,278,30,03,41,102,,0
GPGSV 1: 3,2,12,31,26,047,15,11,22,313,19,19,20,244,,26,09,065,,0
GPGSV 2: 3,3,12,17,08,223,,07,07,177,,01,06,153,,28,06,028,,0
GPGSV 3: 
nan
stack_usage: 644
$GNRMC,213510.000,A,5429.4248,N,00943.8965,E,0.00,255.04,090326,,,A,V
16902: 54294248,9438965
Delta latt: 67,-4
GPGSV 0: 3,1,12,04,76,095,21,09,64,220,24,06,59,278,30,03,41,102,,0
GPGSV 1: 3,2,12,31,26,047,14,11,22,313,19,19,20,244,,26,09,065,,0
GPGSV 2: 3,3,12,17,08,223,,07,07,177,,01,06,153,,28,06,028,,0
GPGSV 3: 
nan
stack_usage: 644
$GNRMC,213511.000,A,5429.4248,N,00943.8965,E,0.00,255.04,090326,,,A,V
16903: 54294248,9438965
Delta latt: 67,-4
GPGSV 0: 3,1,12,04,76,095,21,09,64,220,24,06,59,278,30,03,41,102,,0
GPGSV 1: 3,2,12,31,26,047,16,11,22,313,19,19,20,244,,26,09,065,,0
GPGSV 2: 3,3,12,17,08,223,,07,07,177,,01,06,153,,28,06,028,,0
GPGSV 3: 
nan
stack_usage: 644
$GNRMC,213512.000,A,5429.4248,N,00943.8965,E,0.00,255.04,090326,,,A,V
16904: 54294248,9438965
Delta latt: 67,-4
GPGSV 0: 3,1,12,04,76,095,21,09,64,220,24,06,59,278,30,03,41,102,,0
GPGSV 1: 3,2,12,31,26,047,17,11,22,313,19,19,20,244,,26,09,065,,0
GPGSV 2: 3,3,12,17,08,223,,07,07,177,,01,06,153,,28,06,028,,0
GPGSV 3: 
nan
stack_usage: 644
$GNRMC,213513.000,A,5429.4248,N,00943.8965,E,0.00,255.04,090326,,,A,V
16905: 54294248,9438965
Delta latt: 67,-4
GPGSV 0: 3,1,12,04,76,095,21,09,64,220,24,06,59,278,30,03,41,102,,0
GPGSV 1: 3,2,12,31,26,047,15,11,22,313,19,19,20,244,,26,09,065,,0
GPGSV 2: 3,3,12,17,08,223,,07,07,177,,01,06,153,,28,06,028,,0
GPGSV 3: 
nan
stack_usage: 644
$GNRMC,213514.000,A,5429.4248,N,00943.8965,E,0.00,255.04,090326,,,A,V
16906: 54294248,9438965
Delta latt: 67,-4
GPGSV 0: 3,1,12,04,76,095,21,09,64,220,24,06,59,278,30,03,41,102,,0
GPGSV 1: 3,2,12,31,26,047,14,11,22,313,19,19,20,244,,26,09,065,,0
GPGSV 2: 3,3,12,17,08,223,,07,07,177,,01,06,153,,28,06,028,,0
GPGSV 3: 
nan
stack_usage: 644
$GNRMC,213515.000,A,5429.4248,N,00943.8965,E,0.00,255.04,090326,,,A,V
16907: 54294248,9438965
Delta latt: 67,-4
GPGSV 0: 3,1,12,04,76,095,21,09,64,220,24,06,59,278,30,03,41,102,15,0
GPGSV 1: 3,2,12,31,26,047,16,11,22,313,19,19,20,244,,26,09,065,,0
GPGSV 2: 3,3,12,17,08,223,,07,07,177,,01,06,153,,28,06,028,,0
GPGSV 3: 
nan
stack_usage: 644
$GNRMC,213516.000,A,5429.4248,N,00943.8965,E,1.10,308.44,090326,,,A,V
16908: 54294248,9438965
Delta latt: 67,-4
GPGSV 0: 3,1,12,04,76,095,21,09,64,220,23,06,59,278,30,03,41,102,14,0
GPGSV 1: 3,2,12,31,26,047,15,11,22,313,19,19,20,244,,26,09,065,,0
GPGSV 2: 3,3,12,17,08,223,,07,07,177,,01,06,153,,28,06,028,,0
GPGSV 3: 
nan
stack_usage: 644
$GNRMC,213517.000,A,5429.4248,N,00943.8965,E,0.00,255.04,090326,,,A,V
16909: 54294248,9438965
Delta latt: 67,-4
GPGSV 0: 3,1,12,04,76,095,21,09,64,220,23,06,59,278,29,03,41,102,15,0
GPGSV 1: 3,2,12,31,26,047,15,11,22,313,19,19,20,244,,26,09,065,,0
GPGSV 2: 3,3,12,17,08,223,,07,07,177,,01,06,153,,28,06,028,,0
GPGSV 3: 
nan
stack_usage: 644
$GNRMC,213518.000,A,5429.4248,N,00943.8965,E,0.00,255.04,090326,,,A,V
16910: 54294248,9438965
Delta latt: 67,-4
GPGSV 0: 3,1,12,04,76,095,21,09,64,220,23,06,59,278,29,03,41,102,15,0
GPGSV 1: 3,2,12,31,26,047,17,11,22,313,19,19,20,244,,26,09,065,,0
GPGSV 2: 3,3,12,17,08,223,,07,07,177,,01,06,153,,28,06,028,,0
GPGSV 3: 
nan
stack_usage: 644
$GNRMC,213519.000,A,5429.4248,N,00943.8965,E,0.00,255.04,090326,,,A,V
16911: 54294248,9438965
Delta latt: 67,-4
GPGSV 0: 3,1,12,04,76,095,21,09,64,220,23,06,59,278,29,03,41,102,15,0
GPGSV 1: 3,2,12,31,26,047,15,11,22,313,19,19,20,244,,26,09,065,,0
GPGSV 2: 3,3,12,17,08,223,,07,07,177,,01,06,153,,28,06,028,,0
GPGSV 3: 
nan
stack_usage: 644
$GNRMC,213520.000,A,5429.4248,N,00943.8965,E,0.00,255.04,090326,,,A,V
16912: 54294248,9438965
Delta latt: 67,-4
GPGSV 0: 3,1,12,04,76,095,21,09,64,220,23,06,59,278,29,03,41,102,16,0
GPGSV 1: 3,2,12,31,26,047,15,11,22,313,19,19,20,244,,26,09,065,,0
GPGSV 2: 3,3,12,17,08,223,,07,07,177,,01,06,153,,28,06,028,,0
GPGSV 3: 
nan
stack_usage: 644
$GNRMC,213521.000,A,5429.4248,N,00943.8965,E,1.16,162.40,090326,,,A,V
16913: 54294248,9438965
Delta latt: 67,-4
GPGSV 0: 3,1,12,04,76,095,21,09,64,220,23,06,59,278,29,03,41,102,16,0
GPGSV 1: 3,2,12,31,26,047,15,11,22,313,19,19,20,244,,26,09,065,,0
GPGSV 2: 3,3,12,17,08,223,,07,07,177,,01,06,153,,28,06,028,,0
GPGSV 3: 
nan
stack_usage: 644
$GNRMC,213522.000,A,5429.4259,N,00943.9028,E,0.97,133.99,090326,,,A,V
16914: 54294259,9439028
Delta latt: 78,59
GPGSV 0: 3,1,12,04,76,095,21,09,64,220,23,06,59,278,29,03,41,102,16,0
GPGSV 1: 3,2,12,31,26,047,14,11,22,313,19,19,20,244,,26,09,065,,0
GPGSV 2: 3,3,12,17,08,223,,07,07,177,,01,06,153,,28,06,028,,0
GPGSV 3: 
1.811271
stack_usage: 644
$GNRMC,213523.000,A,5429.4262,N,00943.9034,E,0.00,133.99,090326,,,A,V
16915: 54294262,9439034
Delta latt: 81,65
GPGSV 0: 3,1,12,04,76,095,23,09,64,220,23,06,59,278,30,03,41,102,16,0
GPGSV 1: 3,2,12,31,26,047,13,11,22,313,19,19,20,244,,26,09,065,,0
GPGSV 2: 3,3,12,17,08,223,,07,07,177,,01,06,153,,28,06,028,,0
GPGSV 3: 
1.923407
stack_usage: 644
$GNRMC,213524.000,A,5429.4265,N,00943.9037,E,0.00,133.99,090326,,,A,V
16916: 54294265,9439037
Delta latt: 84,68
GPGSV 0: 3,1,12,04,76,095,23,09,64,220,23,06,59,278,30,03,41,102,16,0
GPGSV 1: 3,2,12,31,26,047,14,11,22,313,19,19,20,244,,26,09,065,,0
GPGSV 2: 3,3,12,17,08,223,,07,07,177,,01,06,153,,28,06,028,,0
GPGSV 3: 
2.001531
stack_usage: 644
$GNRMC,213525.000,A,5429.4270,N,00943.9040,E,1.09,24.59,090326,,,A,V
16917: 54294270,9439040
Delta latt: 89,71
GPGSV 0: 3,1,12,04,76,095,23,09,64,220,23,06,59,278,30,03,41,102,16,0
GPGSV 1: 3,2,12,31,26,047,15,11,22,313,19,19,20,244,,26,09,065,,0
GPGSV 2: 3,3,12,17,08,223,,07,07,177,,01,06,153,,28,06,028,,0
GPGSV 3: 
2.108516
stack_usage: 644
$GNRMC,213526.000,A,5429.4274,N,00943.9040,E,1.67,8.18,090326,,,A,V
16918: 54294274,9439040
Delta latt: 93,71
GPGSV 0: 3,1,12,04,76,095,22,09,64,220,23,06,59,278,30,03,41,102,16,0
GPGSV 1: 3,2,12,31,26,047,17,11,22,313,19,19,20,244,,26,09,065,,0
GPGSV 2: 3,3,12,17,08,223,,07,07,177,,01,06,153,,28,06,028,,0
GPGSV 3: 
2.166919
stack_usage: 644
$GNRMC,213527.000,A,5429.4272,N,00943.9033,E,0.96,354.26,090326,,,A,V
16919: 54294272,9439033
Delta latt: 91,64
GPGSV 0: 3,1,12,04,76,095,22,09,64,220,23,06,59,278,30,03,41,102,16,0
GPGSV 1: 3,2,12,31,26,047,17,11,22,313,19,19,20,244,,26,09,065,,0
GPGSV 2: 3,3,12,17,08,223,,07,07,177,,01,06,153,,28,06,028,,0
GPGSV 3: 
2.060386
stack_usage: 644
$GNRMC,213528.000,A,5429.4280,N,00943.9036,E,1.75,9.76,090326,,,A,V
16920: 54294280,9439036
Delta latt: 99,67
GPGSV 0: 3,1,12,04,76,095,22,09,64,220,23,06,59,278,30,03,41,102,17,0
GPGSV 1: 3,2,12,31,26,047,17,11,22,313,19,19,20,244,,26,09,065,,0
GPGSV 2: 3,3,12,17,08,223,,07,07,177,,01,06,153,,28,06,028,,0
GPGSV 3: 
2.213895
stack_usage: 644
$GNRMC,213529.000,A,5429.4288,N,00943.9039,E,2.41,13.65,090326,,,A,V
16921: 54294288,9439039
Delta latt: 107,70
GPGSV 0: 3,1,12,04,76,095,22,09,64,220,23,06,59,278,30,03,41,102,17,0
GPGSV 1: 3,2,12,31,26,047,17,11,22,313,19,19,20,244,,26,09,065,,0
GPGSV 2: 3,3,12,17,08,223,,07,07,177,,01,06,153,,28,06,028,,0
GPGSV 3: 
2.368026
stack_usage: 644
$GNRMC,213530.000,A,5429.4285,N,00943.9034,E,0.96,51.07,090326,,,A,V
16922: 54294285,9439034
Delta latt: 104,65
GPGSV 0: 3,1,12,04,76,095,23,09,64,220,23,06,59,278,30,03,41,102,16,0
GPGSV 1: 3,2,12,31,26,047,16,11,22,313,19,19,20,244,,26,09,065,,0
GPGSV 2: 3,3,12,17,08,223,,07,07,177,,01,06,153,,28,06,028,,0
GPGSV 3: 
2.271325
stack_usage: 644
$GNRMC,213531.000,A,5429.4282,N,00943.9033,E,0.00,51.07,090326,,,A,V
16923: 54294282,9439033
Delta latt: 101,64
GPGSV 0: 3,1,12,04,76,095,23,09,64,220,23,06,59,278,30,03,41,102,16,0
GPGSV 1: 3,2,12,31,26,047,16,11,22,313,19,19,20,244,,26,09,065,,0
GPGSV 2: 3,3,12,17,08,223,,07,07,177,,01,06,153,,28,06,028,,0
GPGSV 3: 
2.214437
stack_usage: 644
$GNRMC,213532.000,A,5429.4278,N,00943.9029,E,1.32,202.88,090326,,,A,V
16924: 54294278,9439029
Delta latt: 97,60
GPGSV 0: 3,1,12,04,76,095,23,09,64,220,23,06,59,278,30,03,41,102,16,0
GPGSV 1: 3,2,12,31,26,047,13,11,22,313,18,19,20,244,,26,09,065,,0
GPGSV 2: 3,3,12,17,08,223,,07,07,177,,01,06,153,,28,06,028,,0
GPGSV 3: 
2.112336
stack_usage: 644
$GNRMC,213533.000,A,5429.4281,N,00943.9027,E,0.00,202.88,090326,,,A,V
16925: 54294281,9439027
Delta latt: 100,58
GPGSV 0: 3,1,12,04,76,095,23,09,64,220,23,06,59,278,30,03,41,102,17,0
GPGSV 1: 3,2,12,31,26,047,15,11,22,313,18,19,20,244,,26,09,065,,0
GPGSV 2: 3,3,12,17,08,223,,07,07,177,,01,06,153,,28,06,028,,0
GPGSV 3: 
2.140963
stack_usage: 644
$GNRMC,213534.000,A,5429.4281,N,00943.9027,E,1.17,219.33,090326,,,A,V
16926: 54294281,9439027
Delta latt: 100,58
GPGSV 0: 3,1,12,04,76,095,23,09,64,220,22,06,59,278,30,03,41,102,17,0
GPGSV 1: 3,2,12,31,26,047,14,11,22,313,18,19,20,244,,26,09,065,,0
GPGSV 2: 3,3,12,17,08,223,,07,07,177,,01,06,153,,28,06,028,,0
GPGSV 3: 
2.140963
stack_usage: 644
$GNRMC,213535.000,A,5429.4281,N,00943.9027,E,0.00,202.88,090326,,,A,V
16927: 54294281,9439027
Delta latt: 100,58
GPGSV 0: 3,1,12,04,76,095,23,09,64,220,22,06,59,278,28,03,41,102,17,0
GPGSV 1: 3,2,12,31,26,047,16,11,22,313,18,19,20,244,,26,09,065,,0
GPGSV 2: 3,3,12,17,08,223,,07,07,177,,01,06,153,,28,06,028,,0
GPGSV 3: 
2.140963
stack_usage: 644
$GNRMC,213536.000,A,5429.4281,N,00943.9027,E,0.00,202.88,090326,,,A,V
16928: 54294281,9439027
Delta latt: 100,58
GPGSV 0: 3,1,12,04,76,095,23,09,64,220,23,06,59,278,28,03,41,102,17,0
GPGSV 1: 3,2,12,31,26,047,15,11,22,313,18,19,20,244,,26,09,065,,0
GPGSV 2: 3,3,12,17,08,223,,07,07,177,,28,06,028,,01,05,153,,0
GPGSV 3: 
2.140963
stack_usage: 644
$GNRMC,213537.000,A,5429.4281,N,00943.9027,E,0.00,202.88,090326,,,A,V
16929: 54294281,9439027
Delta latt: 100,58
GPGSV 0: 3,1,12,04,76,095,23,09,64,220,23,06,59,278,28,03,41,102,16,0
GPGSV 1: 3,2,12,31,26,047,15,11,22,313,18,19,20,244,,26,09,065,,0
GPGSV 2: 3,3,12,17,08,223,,07,07,177,,28,06,028,,01,05,153,,0
GPGSV 3: 
2.140963
stack_usage: 644
$GNRMC,213538.000,A,5429.4281,N,00943.9027,E,0.00,202.88,090326,,,A,V
16930: 54294281,9439027
Delta latt: 100,58
GPGSV 0: 3,1,12,04,76,095,23,09,64,220,23,06,59,278,28,03,40,102,16,0
GPGSV 1: 3,2,12,31,26,047,16,11,22,313,18,19,20,244,,26,09,065,,0
GPGSV 2: 3,3,12,17,08,223,,07,07,177,,28,06,028,,01,05,153,14,0
GPGSV 3: 
2.140963
stack_usage: 644
$GNRMC,213539.000,A,5429.4281,N,00943.9027,E,0.00,202.88,090326,,,A,V
16931: 54294281,9439027
Delta latt: 100,58
GPGSV 0: 3,1,12,04,75,092,23,09,64,220,23,06,59,278,29,03,40,102,16,0
GPGSV 1: 3,2,12,31,26,047,14,11,22,313,18,19,20,244,,26,09,065,,0
GPGSV 2: 3,3,12,17,08,223,,07,07,177,,28,06,028,,01,05,153,14,0
GPGSV 3: 
2.140963
stack_usage: 644
$GNRMC,213540.000,A,5429.4281,N,00943.9027,E,0.00,202.88,090326,,,A,V
16932: 54294281,9439027
Delta latt: 100,58
GPGSV 0: 3,1,12,04,75,092,23,09,64,220,23,06,59,278,29,03,40,102,17,0
GPGSV 1: 3,2,12,31,26,047,16,11,22,313,18,19,20,244,,26,09,065,,0
GPGSV 2: 3,3,12,17,08,223,,07,07,177,,28,06,028,,01,05,153,13,0
GPGSV 3: 
2.140963
stack_usage: 644
$GNRMC,213541.000,A,5429.4281,N,00943.9027,E,0.00,202.88,090326,,,A,V
16933: 54294281,9439027
Delta latt: 100,58
GPGSV 0: 3,1,12,04,75,092,23,09,64,220,22,06,59,277,29,03,40,102,17,0
GPGSV 1: 3,2,12,31,26,047,16,11,22,313,17,19,20,244,,26,09,065,,0
GPGSV 2: 3,3,12,17,08,223,,07,07,177,,28,06,028,,01,05,153,,0
GPGSV 3: 
2.140963
stack_usage: 644
$GNRMC,213542.000,A,5429.4281,N,00943.9027,E,0.00,202.88,090326,,,A,V
16934: 54294281,9439027
Delta latt: 100,58
GPGSV 0: 3,1,12,04,75,092,23,09,64,220,22,06,59,277,29,03,40,102,17,0
GPGSV 1: 3,2,12,31,26,047,15,11,22,313,17,19,20,244,,26,09,065,,0
GPGSV 2: 3,3,12,07,08,177,,17,08,223,,28,06,028,,01,05,153,,0
GPGSV 3: 
2.140963
stack_usage: 644
$GNRMC,213543.000,A,5429.4281,N,00943.9027,E,0.00,202.88,090326,,,A,V
16935: 54294281,9439027
Delta latt: 100,58
GPGSV 0: 3,1,12,04,75,092,23,09,64,220,22,06,59,277,29,03,40,102,17,0
GPGSV 1: 3,2,12,31,26,047,15,11,22,313,17,19,20,244,,26,09,065,,0
GPGSV 2: 3,3,12,07,08,177,,17,08,223,,28,06,028,,01,05,153,17,0
GPGSV 3: 
2.140963
stack_usage: 644
$GNRMC,213544.000,A,5429.4281,N,00943.9027,E,0.00,202.88,090326,,,A,V
16936: 54294281,9439027
Delta latt: 100,58
GPGSV 0: 3,1,12,04,75,092,23,09,65,220,22,06,59,277,29,03,40,102,17,0
GPGSV 1: 3,2,12,31,26,047,15,11,22,313,19,19,20,244,,26,09,065,,0
GPGSV 2: 3,3,12,07,08,177,,17,08,223,,28,06,028,,01,05,153,15,0
GPGSV 3: 
2.140963
stack_usage: 644
$GNRMC,213545.000,A,5429.4281,N,00943.9027,E,0.00,202.88,090326,,,A,V
16937: 54294281,9439027
Delta latt: 100,58
GPGSV 0: 3,1,12,04,75,092,22,09,65,220,22,06,59,277,29,03,40,102,17,0
GPGSV 1: 3,2,12,31,26,047,15,11,22,313,19,19,20,244,,26,09,065,,0
GPGSV 2: 3,3,12,07,08,177,,17,08,223,,28,06,028,,01,05,153,14,0
GPGSV 3: 
2.140963
stack_usage: 644
$GNRMC,213546.000,A,5429.4281,N,00943.9027,E,1.22,17.26,090326,,,A,V
16938: 54294281,9439027
Delta latt: 100,58
GPGSV 0: 3,1,12,04,75,092,23,09,65,220,22,06,59,277,29,03,40,102,17,0
GPGSV 1: 3,2,12,31,26,047,14,11,23,312,18,19,20,244,,26,09,065,,0
GPGSV 2: 3,3,12,07,08,177,,17,08,223,,28,06,028,,01,05,153,14,0
GPGSV 3: 
2.140963
stack_usage: 644
$GNRMC,213547.000,A,5429.4281,N,00943.9027,E,0.00,202.88,090326,,,A,V
16939: 54294281,9439027
Delta latt: 100,58
GPGSV 0: 3,1,12,04,75,092,23,09,65,220,22,06,59,277,29,03,40,102,17,0
GPGSV 1: 3,2,12,31,26,047,12,11,23,312,18,19,20,244,,26,09,065,,0
GPGSV 2: 3,3,12,07,08,177,,17,08,223,,28,06,028,,01,05,153,15,0
GPGSV 3: 
2.140963
stack_usage: 644
$GNRMC,213548.000,A,5429.4281,N,00943.9027,E,0.82,6.12,090326,,,A,V
16940: 54294281,9439027
Delta latt: 100,58
GPGSV 0: 3,1,12,04,75,092,23,09,65,220,22,06,59,277,29,03,40,102,17,0
GPGSV 1: 3,2,12,31,26,047,12,11,23,312,18,19,20,244,,26,09,065,,0
GPGSV 2: 3,3,12,07,08,177,,17,08,223,,28,06,028,,01,05,153,15,0
GPGSV 3: 
2.140963
stack_usage: 644
$GNRMC,213549.000,A,5429.4257,N,00943.9077,E,1.04,12.09,090326,,,A,V
16941: 54294257,9439077
Delta latt: 76,108
GPGSV 0: 3,1,12,04,75,092,23,09,65,220,22,06,59,277,29,03,40,102,17,0
GPGSV 1: 3,2,12,31,26,047,13,11,23,312,18,19,20,244,,26,09,065,,0
GPGSV 2: 3,3,12,07,08,177,,17,08,223,,28,06,028,,01,05,153,15,0
GPGSV 3: 
2.445762
stack_usage: 644
$GNRMC,213550.000,A,5429.4263,N,00943.9083,E,1.33,29.99,090326,,,A,V
16942: 54294263,9439083
Delta latt: 82,114
GPGSV 0: 3,1,12,04,75,092,23,09,65,220,20,06,59,277,29,03,40,102,17,0
GPGSV 1: 3,2,12,31,26,047,12,11,23,312,18,19,20,244,,26,09,065,,0
GPGSV 2: 3,3,12,07,08,177,,17,08,223,,28,06,028,,01,05,153,16,0
GPGSV 3: 
2.600725
stack_usage: 644
$GNRMC,213551.000,A,5429.4252,N,00943.9086,E,0.00,29.99,090326,,,A,V
16943: 54294252,9439086
Delta latt: 71,117
GPGSV 0: 3,1,12,04,75,092,23,09,65,220,20,06,59,277,29,03,40,102,17,0
GPGSV 1: 3,2,12,31,26,047,,11,23,312,17,19,20,244,,26,09,065,,0
GPGSV 2: 3,3,12,07,08,177,,17,08,223,,28,06,028,,01,05,153,16,0
GPGSV 3: 
2.534602
stack_usage: 644
$GNRMC,213552.000,A,5429.4252,N,00943.9095,E,1.22,17.34,090326,,,A,V
16944: 54294252,9439095
Delta latt: 71,126
GPGSV 0: 3,1,12,04,75,092,23,09,65,220,20,06,59,277,29,03,40,102,17,0
GPGSV 1: 3,2,12,31,26,047,,11,23,312,17,19,20,244,,26,09,065,,0
GPGSV 2: 3,3,12,07,08,177,,17,07,223,,28,06,028,,01,05,153,16,0
GPGSV 3: 
2.678494
stack_usage: 644
$GNRMC,213553.000,A,5429.4245,N,00943.9101,E,1.06,5.62,090326,,,A,V
16945: 54294245,9439101
Delta latt: 64,132
GPGSV 0: 3,1,12,04,75,092,23,09,65,220,20,06,59,277,29,03,40,102,17,0
GPGSV 1: 3,2,12,31,26,047,,11,23,312,17,19,20,244,,26,09,065,,0
GPGSV 2: 3,3,12,07,08,177,,17,07,223,,28,06,028,,01,05,153,16,0
GPGSV 3: 
2.716828
stack_usage: 644
$GNRMC,213554.000,A,5429.4235,N,00943.9112,E,0.00,71.38,090326,,,A,V
16946: 54294235,9439112
Delta latt: 54,143
GPGSV 0: 3,1,12,04,75,092,23,09,65,220,21,06,59,277,29,03,40,102,17,0
GPGSV 1: 3,2,12,31,26,047,,11,23,312,17,19,19,243,,26,09,065,,0
GPGSV 2: 3,3,12,07,08,177,,17,07,223,,28,06,028,,01,05,153,16,0
GPGSV 3: 
2.830896
stack_usage: 48waiting for GNSS...
stack_usage: 400
$GNRMC,213606.000,A,5429.4233,N,00943.9116,E,0.00,218.67,090326,,,A,V
16998: 54294233,9439116
Delta latt: 0,0
GPGSV 0: 3,1,12,04,75,092,23,09,65,220,20,06,59,277,29,03,40,102,17,0
GPGSV 1: 3,2,12,31,25,046,15,11,23,312,18,19,19,243,,26,09,065,,0
GPGSV 2: 3,3,12,07,08,177,,17,07,223,,01,05,153,15,28,05,027,,0
GPGSV 3: 
0.000000
stack_usage: 572
$GNRMC,213607.000,A,5429.4233,N,00943.9116,E,0.00,218.67,090326,,,A,V
16999: 54294233,9439116
Delta latt: 0,0
GPGSV 0: 3,1,12,04,75,092,23,09,65,220,20,06,59,277,30,03,40,102,17,0
GPGSV 1: 3,2,12,31,25,046,15,11,23,312,18,19,19,243,,26,09,065,,0
GPGSV 2: 3,3,12,07,08,177,,17,07,223,,01,05,153,15,28,05,027,,0
GPGSV 3: 
0.000000
stack_usage: 572
$GNRMC,213608.000,A,5429.4233,N,00943.9116,E,0.78,54.29,090326,,,A,V
17000: 54294233,9439116
Delta latt: 0,0
GPGSV 0: 3,1,12,04,75,092,23,09,65,220,20,06,59,277,30,03,40,102,17,0
GPGSV 1: 3,2,12,31,25,046,15,11,23,312,18,19,19,243,,26,09,065,,0
GPGSV 2: 3,3,12,07,08,177,,17,07,223,,01,05,153,15,28,05,027,,0
GPGSV 3: 
0.000000
stack_usage: 572
$GNRMC,213609.000,A,5429.4233,N,00943.9116,E,0.00,218.67,090326,,,A,V
17001: 54294233,9439116
Delta latt: 0,0
GPGSV 0: 3,1,12,04,75,092,23,09,65,220,20,06,59,277,30,03,40,102,17,0
GPGSV 1: 3,2,12,31,25,046,15,11,23,312,17,19,19,243,,26,09,065,,0
GPGSV 2: 3,3,12,07,08,177,,17,07,223,,01,05,153,17,28,05,027,,0
GPGSV 3: 
0.000000
