stack_usage: 492
$GNRMC,174118.000,A,5429.3967,N,00943.9142,E,0.00,98.81,040326,,,A,V
43046: 54293967,9439142
Delta latt: -9,32
GPGSV 0: 3,1,12,02,89,141,19,01,55,278,22,32,43,087,24,08,41,177,,0
GPGSV 1: 3,2,12,10,28,057,,14,23,296,,22,22,313,25,03,22,227,,0
GPGSV 2: 3,3,12,27,15,158,,17,12,315,,24,05,013,,49,,,,0
GPGSV 3: 
stack_usage: 492
$GNRMC,174119.000,A,5429.3967,N,00943.9142,E,0.00,98.81,040326,,,A,V
43047: 54293967,9439142
Delta latt: -9,32
GPGSV 0: 3,1,12,02,89,141,19,01,55,278,22,32,43,087,24,08,41,177,,0
GPGSV 1: 3,2,12,10,28,057,,14,23,296,,22,22,313,25,03,22,227,,0
GPGSV 2: 3,3,12,27,15,158,,17,12,315,,24,05,013,,49,,,,0
GPGSV 3: 
stack_usage: 492
$GNRMC,174120.000,A,5429.3967,N,00943.9142,E,0.00,98.81,040326,,,A,V
43048: 54293967,9439142
Delta latt: -9,32
GPGSV 0: 3,1,11,02,89,141,19,01,55,278,22,32,43,087,24,08,41,177,,0
GPGSV 1: 3,2,11,10,28,057,,14,23,296,,22,22,313,25,03,22,227,,0
GPGSV 2: 3,3,11,27,15,158,,17,12,315,,24,05,013,,0
GPGSV 3: 
stack_usage: 492
$GNRMC,174121.000,A,5429.3967,N,00943.9142,E,0.00,98.81,040326,,,A,V
43049: 54293967,9439142
Delta latt: -9,32
GPGSV 0: 3,1,11,02,89,141,19,01,55,278,22,32,43,087,24,08,41,177,,0
GPGSV 1: 3,2,11,10,28,057,,14,23,296,,22,22,313,25,03,22,227,,0
GPGSV 2: 3,3,11,27,15,158,,17,12,315,,24,05,013,,0
GPGSV 3: 
stack_usage: 492
$GNRMC,174122.000,A,5429.3967,N,00943.9142,E,0.97,28.62,040326,,,A,V
43050: 54293967,9439142
Delta latt: -9,32
GPGSV 0: 3,1,11,02,89,141,19,01,55,278,22,32,43,087,24,08,41,177,,0
GPGSV 1: 3,2,11,10,28,057,,14,23,296,,22,22,313,26,03,22,227,,0
GPGSV 2: 3,3,11,27,15,158,,17,12,315,,24,05,013,,0
GPGSV 3: 
stack_usage: 492
$GNRMC,174123.000,A,5429.3994,N,00943.9170,E,0.87,44.16,040326,,,A,V
43051: 54293994,9439170
Delta latt: 18,60
GPGSV 0: 3,1,11,02,89,141,19,01,55,278,22,32,43,087,24,08,41,177,,0
GPGSV 1: 3,2,11,10,28,057,,14,23,296,,22,22,313,26,03,22,227,,0
GPGSV 2: 3,3,11,27,15,158,,17,12,315,,24,05,013,,0
GPGSV 3: 
stack_usage: 492
$GNRMC,174124.000,A,5429.3998,N,00943.9170,E,0.79,6.09,040326,,,A,V
43052: 54293998,9439170
Delta latt: 22,60
GPGSV 0: 3,1,11,02,89,141,19,01,55,278,22,32,43,087,23,08,41,177,,0
GPGSV 1: 3,2,11,10,28,057,,14,23,296,,22,22,313,26,03,22,227,,0
GPGSV 2: 3,3,11,27,15,158,,17,12,315,,24,05,013,,0
GPGSV 3: 
stack_usage: 492
$GNRMC,174125.000,A,5429.4000,N,00943.9174,E,0.00,6.09,040326,,,A,V
43053: 54294000,9439174
Delta latt: 24,64
GPGSV 0: 3,1,11,02,89,141,19,01,55,278,22,32,43,087,23,08,41,177,,0
GPGSV 1: 3,2,11,10,28,057,,14,23,296,,22,22,313,26,03,22,227,,0
GPGSV 2: 3,3,11,27,15,158,,17,12,315,,24,05,013,,0
GPGSV 3: 
stack_usage: 492
$GNRMC,174126.000,A,5429.4003,N,00943.9176,E,0.00,48.81,040326,,,A,V
43054: 54294003,9439176
Delta latt: 27,66
GPGSV 0: 3,1,11,02,89,141,19,01,55,278,21,32,43,087,24,08,41,177,,0
GPGSV 1: 3,2,11,10,28,057,,14,23,296,,22,22,313,26,03,22,227,,0
GPGSV 2: 3,3,11,27,15,158,,17,12,315,,24,05,013,,0
GPGSV 3: 
stack_usage: 492
$GNRMC,174127.000,A,5429.4004,N,00943.9180,E,0.91,69.75,040326,,,A,V
43055: 54294004,9439180
Delta latt: 28,70
GPGSV 0: 3,1,11,02,89,141,19,01,55,278,21,32,43,087,24,08,41,177,,0
GPGSV 1: 3,2,11,10,28,057,,14,23,296,,22,22,313,26,03,22,227,,0
GPGSV 2: 3,3,11,27,15,158,,17,12,315,,24,05,013,,0
GPGSV 3: 
stack_usage: 492
$GNRMC,174128.000,A,5429.4005,N,00943.9183,E,0.92,75.10,040326,,,A,V
43056: 54294005,9439183
Delta latt: 29,73
GPGSV 0: 3,1,11,02,89,141,19,01,55,278,21,32,43,087,24,08,41,177,,0
GPGSV 1: 3,2,11,10,28,057,,14,23,296,,22,22,313,26,03,22,227,,0
GPGSV 2: 3,3,11,27,15,158,,17,12,315,,24,05,013,,0
GPGSV 3: 
stack_usage: 492
$GNRMC,174129.000,A,5429.4002,N,00943.9184,E,0.00,123.80,040326,,,A,V
43057: 54294002,9439184
Delta latt: 26,74
GPGSV 0: 3,1,11,02,89,141,19,01,55,278,21,32,43,087,24,08,41,177,,0
GPGSV 1: 3,2,11,10,28,057,,14,23,296,,22,22,313,26,03,22,227,,0
GPGSV 2: 3,3,11,27,15,158,,17,12,315,,24,05,013,,0
GPGSV 3: 
stack_usage: 492
$GNRMC,174130.000,A,5429.4000,N,00943.9182,E,0.00,193.88,040326,,,A,V
43058: 54294000,9439182
Delta latt: 24,72
GPGSV 0: 3,1,11,02,89,141,19,01,55,278,21,32,43,087,24,08,41,177,,0
GPGSV 1: 3,2,11,10,28,057,,14,23,296,,22,22,313,26,03,22,227,,0
GPGSV 2: 3,3,11,27,15,158,,17,12,315,,24,05,013,,0
GPGSV 3: 
stack_usage: 492
$GNRMC,174131.000,A,5429.4001,N,00943.9182,E,0.00,193.88,040326,,,A,V
43059: 54294001,9439182
Delta latt: 25,72
GPGSV 0: 3,1,11,02,89,141,19,01,55,278,21,32,43,087,24,08,41,177,,0
GPGSV 1: 3,2,11,10,28,057,,14,23,296,,22,22,313,26,03,22,227,,0
GPGSV 2: 3,3,11,27,15,158,,17,12,315,,24,05,013,,0
GPGSV 3: 
stack_usage: 492
$GNRMC,174132.000,A,5429.4001,N,00943.9182,E,0.00,193.88,040326,,,A,V
43060: 54294001,9439182
Delta latt: 25,72
GPGSV 0: 3,1,11,02,89,141,19,01,55,278,21,32,43,087,24,08,41,177,,0
GPGSV 1: 3,2,11,10,28,057,,14,23,296,,22,22,313,26,03,22,227,,0
GPGSV 2: 3,3,11,27,15,158,,17,12,315,,24,05,013,,0
GPGSV 3: 
stack_usage: 492
$GNRMC,174133.000,A,5429.4001,N,00943.9182,E,0.00,193.88,040326,,,A,V
43061: 54294001,9439182
Delta latt: 25,72
GPGSV 0: 3,1,11,02,89,141,19,01,55,278,21,32,43,087,24,08,41,177,,0
GPGSV 1: 3,2,11,10,28,057,,14,23,296,,22,22,313,27,03,22,227,,0
GPGSV 2: 3,3,11,27,15,158,,17,12,315,,24,05,013,,0
GPGSV 3: 
stack_usage: 492
$GNRMC,174134.000,A,5429.4001,N,00943.9182,E,0.00,193.88,040326,,,A,V
43062: 54294001,9439182
Delta latt: 25,72
GPGSV 0: 3,1,11,02,89,141,24,01,55,278,21,32,43,087,24,08,41,177,,0
GPGSV 1: 3,2,11,10,28,057,,14,23,296,,22,22,313,27,03,22,227,,0
GPGSV 2: 3,3,11,27,15,158,,17,12,315,,24,05,013,,0
GPGSV 3: 
stack_usage: 492
$GNRMC,174135.000,A,5429.4001,N,00943.9182,E,0.00,193.88,040326,,,A,V
43063: 54294001,9439182
Delta latt: 25,72
GPGSV 0: 3,1,11,02,89,141,22,01,55,278,21,32,43,087,24,08,41,177,,0
GPGSV 1: 3,2,11,10,28,057,,14,23,296,,22,22,313,27,03,22,227,,0
GPGSV 2: 3,3,11,27,15,158,,17,12,315,,24,05,013,,0
GPGSV 3: 
stack_usage: 492
$GNRMC,174136.000,A,5429.4001,N,00943.9182,E,0.00,193.88,040326,,,A,V
43064: 54294001,9439182
Delta latt: 25,72
GPGSV 0: 3,1,11,02,89,141,18,01,55,278,21,32,43,087,24,08,41,177,,0
GPGSV 1: 3,2,11,10,28,057,,14,23,296,,22,22,313,27,03,22,227,,0
GPGSV 2: 3,3,11,27,15,158,,17,12,315,,24,05,013,,0
GPGSV 3: 
stack_usage: 492
$GNRMC,174137.000,A,5429.4001,N,00943.9182,E,0.00,193.88,040326,,,A,V
43065: 54294001,9439182
Delta latt: 25,72
GPGSV 0: 3,1,11,02,89,141,20,01,55,278,21,32,43,087,24,08,41,177,,0
GPGSV 1: 3,2,11,10,28,057,,14,23,296,,22,22,313,27,03,22,227,,0
GPGSV 2: 3,3,11,27,15,158,,17,12,315,,24,05,013,,0
GPGSV 3: 
stack_usage: 492
$GNRMC,174138.000,A,5429.4001,N,00943.9182,E,0.00,193.88,040326,,,A,V
43066: 54294001,9439182
Delta latt: 25,72
GPGSV 0: 3,1,11,02,89,141,19,01,55,278,20,32,43,087,24,08,41,177,,0
GPGSV 1: 3,2,11,10,28,057,,14,23,296,,22,22,313,28,03,22,227,,0
GPGSV 2: 3,3,11,27,15,158,,17,12,315,,24,05,013,,0
GPGSV 3: 
stack_usage: 492
$GNRMC,174139.000,A,5429.4001,N,00943.9182,E,0.00,193.88,040326,,,A,V
43067: 54294001,9439182
Delta latt: 25,72
GPGSV 0: 3,1,11,02,89,141,20,01,55,278,20,32,43,087,23,08,41,177,,0
GPGSV 1: 3,2,11,10,28,057,,14,23,296,,22,22,313,28,03,22,227,,0
GPGSV 2: 3,3,11,27,15,158,,17,12,315,,24,05,013,,0
GPGSV 3: 
stack_usage: 492
$GNRMC,174140.000,A,5429.4001,N,00943.9182,E,1.25,119.92,040326,,,A,V
43068: 54294001,9439182
Delta latt: 25,72
GPGSV 0: 3,1,12,02,89,141,20,01,55,278,20,32,43,087,23,08,41,177,16,0
GPGSV 1: 3,2,12,10,28,057,,14,23,296,,22,22,313,27,03,22,227,,0
GPGSV 2: 3,3,12,27,15,158,,17,12,315,,24,05,013,,51,,,,0
GPGSV 3: 
stack_usage: 492
$GNRMC,174141.000,A,5429.4001,N,00943.9182,E,0.00,193.88,040326,,,A,V
43069: 54294001,9439182
Delta latt: 25,72
GPGSV 0: 3,1,12,02,89,141,20,01,55,278,20,32,43,087,23,08,41,177,13,0
GPGSV 1: 3,2,12,10,28,057,,14,23,296,,22,22,313,27,03,22,227,,0
GPGSV 2: 3,3,12,27,15,158,,17,12,315,,24,05,013,,51,,,,0
GPGSV 3: 
stack_usage: 492
$GNRMC,174142.000,A,5429.4001,N,00943.9182,E,0.00,193.88,040326,,,A,V
43070: 54294001,9439182
Delta latt: 25,72
GPGSV 0: 3,1,12,02,89,141,19,01,55,278,20,32,43,087,22,08,41,177,11,0
GPGSV 1: 3,2,12,10,28,057,,14,23,296,,22,22,313,27,03,22,227,,0
GPGSV 2: 3,3,12,27,15,158,,17,12,315,,24,05,013,,51,,,,0
GPGSV 3: 
stack_usage: 492
$GNRMC,174143.000,A,5429.4001,N,00943.9182,E,0.00,193.88,040326,,,A,V
43071: 54294001,9439182
Delta latt: 25,72
GPGSV 0: 3,1,12,02,89,141,19,01,55,278,20,32,43,087,22,08,41,177,,0
GPGSV 1: 3,2,12,10,28,057,,14,23,296,,22,22,313,27,03,22,227,,0
GPGSV 2: 3,3,12,27,15,158,,17,12,315,,24,05,013,,51,,,,0
GPGSV 3: 
stack_usage: 492
$GNRMC,174144.000,A,5429.4001,N,00943.9182,E,0.00,193.88,040326,,,A,V
43072: 54294001,9439182
Delta latt: 25,72
GPGSV 0: 3,1,12,02,89,141,19,01,55,278,20,32,43,087,22,08,41,177,,0
GPGSV 1: 3,2,12,10,28,057,,14,23,296,,22,22,313,27,03,22,227,,0
GPGSV 2: 3,3,12,27,15,158,,17,12,315,,24,05,013,,51,,,,0
GPGSV 3: 
stack_usage: 492
$GNRMC,174145.000,A,5429.4001,N,00943.9182,E,1.37,249.18,040326,,,A,V
43073: 54294001,9439182
Delta latt: 25,72
GPGSV 0: 3,1,12,02,89,141,19,01,55,278,20,32,43,087,22,08,41,177,,0
GPGSV 1: 3,2,12,10,28,057,,14,23,296,,22,22,313,27,03,22,227,,0
GPGSV 2: 3,3,12,27,15,158,,17,12,315,,24,05,013,,51,,,,0
GPGSV 3: 
stack_usage: 492
$GNRMC,174146.000,A,5429.4001,N,00943.9184,E,1.38,217.21,040326,,,A,V
43074: 54294001,9439184
Delta latt: 25,74
GPGSV 0: 3,1,12,02,89,141,19,01,55,278,20,32,43,087,22,08,41,177,,0
GPGSV 1: 3,2,12,10,28,057,,14,23,296,,22,22,313,27,03,22,227,,0
GPGSV 2: 3,3,12,27,15,158,,17,12,315,,24,05,013,,51,,,,0
GPGSV 3: 
stack_usage: 492
$GNRMC,174147.000,A,5429.3998,N,00943.9181,E,1.41,213.41,040326,,,A,V
43075: 54293998,9439181
Delta latt: 22,71
GPGSV 0: 3,1,11,02,89,141,19,01,55,278,20,32,43,087,22,08,41,177,,0
GPGSV 1: 3,2,11,10,28,057,,14,23,296,,22,22,313,27,03,22,227,,0
GPGSV 2: 3,3,11,27,15,158,,17,12,315,,24,05,013,,0
GPGSV 3: 
stack_usage: 492
$GNRMC,174148.000,A,5429.3993,N,00943.9180,E,1.71,198.15,040326,,,A,V
43076: 54293993,9439180
Delta latt: 17,70
GPGSV 0: 3,1,11,02,89,141,19,01,55,278,20,32,43,087,22,08,41,177,,0
GPGSV 1: 3,2,11,10,28,057,,14,23,296,,22,22,313,28,03,22,227,,0
GPGSV 2: 3,3,11,27,15,158,,17,12,315,,24,05,013,,0
GPGSV 3: 
stack_usage: 492
$GNRMC,174149.000,A,5429.3988,N,00943.9176,E,1.54,204.71,040326,,,A,V
43077: 54293988,9439176
Delta latt: 12,66
GPGSV 0: 3,1,11,02,89,141,19,01,55,278,20,32,43,087,22,08,41,177,,0
GPGSV 1: 3,2,11,10,28,057,,14,23,296,,22,22,313,28,03,22,227,,0
GPGSV 2: 3,3,11,27,15,158,,17,12,315,,24,05,013,,0
GPGSV 3: 
stack_usage: 492
$GNRMC,174150.000,A,5429.3989,N,00943.9181,E,0.00,176.98,040326,,,A,V
43078: 54293989,9439181
Delta latt: 13,71
GPGSV 0: 3,1,11,02,89,141,19,01,55,278,20,32,43,087,22,08,41,177,,0
GPGSV 1: 3,2,11,10,28,057,,14,23,296,,22,22,313,28,03,22,227,,0
GPGSV 2: 3,3,11,27,15,158,,17,12,315,,24,05,013,,0
GPGSV 3: 
stack_usage: 492
$GNRMC,174151.000,A,5429.3988,N,00943.9182,E,0.00,176.98,040326,,,A,V
43079: 54293988,9439182
Delta latt: 12,72
GPGSV 0: 3,1,11,02,89,141,18,01,55,278,20,32,43,087,22,08,41,177,,0
GPGSV 1: 3,2,11,10,28,057,,14,23,296,,22,22,313,28,03,22,227,,0
GPGSV 2: 3,3,11,27,15,158,,17,12,315,,24,05,013,,0
GPGSV 3: 
stack_usage: 492
$GNRMC,174152.000,A,5429.3984,N,00943.9178,E,0.88,198.66,040326,,,A,V
43080: 54293984,9439178
Delta latt: 8,68
GPGSV 0: 3,1,11,02,89,141,18,01,55,278,20,32,43,087,22,08,41,177,,0
GPGSV 1: 3,2,11,10,28,057,,14,23,296,,22,22,313,28,03,22,227,,0
GPGSV 2: 3,3,11,27,15,158,,17,12,315,,24,05,013,,0
GPGSV 3: 
stack_usage: 492
$GNRMC,174153.000,A,5429.3979,N,00943.9179,E,1.45,171.54,040326,,,A,V
43081: 54293979,9439179
Delta latt: 3,69
GPGSV 0: 3,1,11,02,89,141,18,01,55,278,20,32,43,087,23,08,41,177,,0
GPGSV 1: 3,2,11,10,28,057,,14,23,296,,22,22,313,28,03,22,227,,0
GPGSV 2: 3,3,11,27,15,158,,17,12,315,,24,05,013,,0
GPGSV 3: 
stack_usage: 492
$GNRMC,174154.000,A,5429.3976,N,00943.9175,E,0.85,179.78,040326,,,A,V
43082: 54293976,9439175
Delta latt: 0,65
GPGSV 0: 3,1,11,02,89,141,18,01,55,278,19,32,43,087,23,08,41,177,,0
GPGSV 1: 3,2,11,10,28,057,,14,23,296,,22,22,313,28,03,22,227,,0
GPGSV 2: 3,3,11,27,15,158,,17,12,315,,24,05,013,,0
GPGSV 3: 
stack_usage: 492
$GNRMC,174155.000,A,5429.3975,N,00943.9178,E,0.00,125.47,040326,,,A,V
43083: 54293975,9439178
Delta latt: -1,68
GPGSV 0: 3,1,11,02,89,141,23,01,55,278,19,32,43,087,23,08,41,177,,0
GPGSV 1: 3,2,11,10,28,057,,14,23,296,,22,22,313,28,03,22,227,,0
GPGSV 2: 3,3,11,27,15,158,,17,12,315,,24,05,013,,0
GPGSV 3: 
stack_usage: 492
$GNRMC,174156.000,A,5429.3971,N,00943.9176,E,0.00,125.47,040326,,,A,V
43084: 54293971,9439176
Delta latt: -5,66
GPGSV 0: 3,1,11,02,89,141,20,01,55,278,19,32,43,087,24,08,41,177,,0
GPGSV 1: 3,2,11,10,28,057,,14,23,296,,22,22,313,28,03,22,227,,0
GPGSV 2: 3,3,11,27,15,158,,17,12,315,,24,05,013,,0
GPGSV 3: 
stack_usage: 492
$GNRMC,174157.000,A,5429.3966,N,00943.9171,E,0.89,197.45,040326,,,A,V
43085: 54293966,9439171
Delta latt: -10,61
GPGSV 0: 3,1,11,02,89,141,,01,55,278,19,32,43,087,24,08,41,177,,0
GPGSV 1: 3,2,11,10,28,057,,14,23,296,,22,22,313,28,03,22,227,,0
GPGSV 2: 3,3,11,27,15,158,,17,12,315,,24,05,013,,0
GPGSV 3: 
stack_usage: 492
$GNRMC,174158.000,A,5429.3966,N,00943.9171,E,0.00,197.45,040326,,,A,V
43086: 54293966,9439171
Delta latt: -10,61
GPGSV 0: 3,1,11,02,89,141,,01,55,278,19,32,43,087,24,08,41,177,,0
GPGSV 1: 3,2,11,10,28,057,,14,23,296,,22,22,313,28,03,22,227,,0
GPGSV 2: 3,3,11,27,15,158,,17,12,315,,24,05,013,,0
GPGSV 3: 
stack_usage: 492
$GNRMC,174159.000,A,5429.3966,N,00943.9171,E,0.00,197.45,040326,,,A,V
43087: 54293966,9439171
Delta latt: -10,61
GPGSV 0: 3,1,11,02,89,141,,01,55,278,18,32,43,087,24,08,41,177,,0
GPGSV 1: 3,2,11,10,28,057,,14,23,296,,22,22,313,28,03,22,227,,0
GPGSV 2: 3,3,11,27,15,158,,17,12,315,,24,05,013,,0
GPGSV 3: 
stack_usage: 492
$GNRMC,174200.000,A,5429.3966,N,00943.9171,E,0.00,197.45,040326,,,A,V
43128: 54293966,9439171
Delta latt: -10,61
GPGSV 0: 3,1,11,02,89,141,,01,55,278,18,32,43,087,24,08,41,177,,0
GPGSV 1: 3,2,11,10,28,057,,14,23,296,,22,22,313,28,03,22,227,,0
GPGSV 2: 3,3,11,27,15,158,,17,12,315,,24,05,013,,0
GPGSV 3: 
stack_usage: 492
$GNRMC,174201.000,A,5429.3966,N,00943.9171,E,0.91,172.18,040326,,,A,V
43129: 54293966,9439171
Delta latt: -10,61
GPGSV 0: 3,1,11,02,89,141,,01,55,278,18,32,43,087,24,08,41,177,,0
GPGSV 1: 3,2,11,10,28,057,,14,23,296,,22,22,313,28,03,22,227,,0
GPGSV 2: 3,3,11,27,15,158,,17,12,315,,24,05,013,,0
GPGSV 3: 
stack_usage: 492
$GNRMC,174202.000,A,5429.3966,N,00943.9171,E,0.00,197.45,040326,,,A,V
43130: 54293966,9439171
Delta latt: -10,61
GPGSV 0: 3,1,11,02,89,141,,01,55,278,18,32,43,087,24,08,41,177,,0
GPGSV 1: 3,2,11,10,28,057,,14,23,296,,22,22,313,28,03,22,227,,0
GPGSV 2: 3,3,11,27,15,158,,17,12,315,14,24,05,013,,0
GPGSV 3: 
stack_usage: 492
$GNRMC,174203.000,A,5429.3966,N,00943.9171,E,0.00,197.45,040326,,,A,V
43131: 54293966,9439171
Delta latt: -10,61
GPGSV 0: 3,1,11,02,89,141,,01,55,278,18,32,43,087,24,08,41,177,,0
GPGSV 1: 3,2,11,10,28,057,,14,23,296,,22,22,313,28,03,22,227,,0
GPGSV 2: 3,3,11,27,15,158,,17,12,315,17,24,05,013,,0
GPGSV 3: 
stack_usage: 492
$GNRMC,174204.000,A,5429.3966,N,00943.9171,E,0.00,197.45,040326,,,A,V
43132: 54293966,9439171
Delta latt: -10,61
GPGSV 0: 3,1,12,02,89,141,17,01,55,278,18,32,43,087,24,08,41,177,,0
GPGSV 1: 3,2,12,10,28,057,,14,23,296,,22,22,313,29,03,22,227,,0
GPGSV 2: 3,3,12,27,15,158,,17,12,315,17,24,05,013,,42,,,,0
GPGSV 3: 
stack_usage: 492
$GNRMC,174205.000,A,5429.3966,N,00943.9171,E,0.00,197.45,040326,,,A,V
43133: 54293966,9439171
Delta latt: -10,61
GPGSV 0: 3,1,12,02,89,141,17,01,55,278,18,32,43,087,24,08,41,177,,0
GPGSV 1: 3,2,12,10,28,057,,14,23,296,,22,22,313,28,03,22,227,,0
GPGSV 2: 3,3,12,27,15,158,,17,12,315,16,24,05,013,,42,,,,0
GPGSV 3: 
stack_usage: 492
$GNRMC,174206.000,A,5429.3966,N,00943.9171,E,1.08,215.29,040326,,,A,V
43134: 54293966,9439171
Delta latt: -10,61
GPGSV 0: 3,1,12,02,89,141,17,01,55,278,18,32,43,087,23,08,41,177,,0
GPGSV 1: 3,2,12,10,28,057,,14,23,296,,22,22,313,28,03,22,227,,0
GPGSV 2: 3,3,12,27,15,158,,17,12,315,16,24,05,013,,42,,,,0
GPGSV 3: 
stack_usage: 492
$GNRMC,174207.000,A,5429.3966,N,00943.9171,E,0.00,197.45,040326,,,A,V
43135: 54293966,9439171
Delta latt: -10,61
GPGSV 0: 3,1,12,02,89,141,17,01,55,278,18,32,43,087,23,08,41,177,,0
GPGSV 1: 3,2,12,10,28,057,,14,23,296,,22,22,313,28,03,22,227,,0
GPGSV 2: 3,3,12,27,15,158,,17,12,315,15,24,05,013,,42,,,,0
GPGSV 3: 
stack_usage: 492
$GNRMC,174208.000,A,5429.3966,N,00943.9171,E,0.00,197.45,040326,,,A,V
43136: 54293966,9439171
Delta latt: -10,61
GPGSV 0: 3,1,12,02,89,141,17,01,55,278,18,32,43,087,23,08,41,177,,0
GPGSV 1: 3,2,12,10,28,057,,14,23,296,,22,22,313,28,03,22,227,,0
GPGSV 2: 3,3,12,27,15,158,,17,12,315,15,24,05,013,,42,,,,0
GPGSV 3: 
stack_usage: 492
$GNRMC,174209.000,A,5429.3966,N,00943.9171,E,1.81,238.16,040326,,,A,V
43137: 54293966,9439171
Delta latt: -10,61
GPGSV 0: 3,1,12,02,89,141,17,01,55,278,18,32,43,087,23,08,41,177,,0
GPGSV 1: 3,2,12,10,28,057,,14,23,296,,22,22,313,28,03,22,227,,0
GPGSV 2: 3,3,12,27,15,158,,17,12,315,15,24,05,013,,42,,,,0
GPGSV 3: 
stack_usage: 492
$GNRMC,174210.000,A,5429.3943,N,00943.9116,E,1.28,232.03,040326,,,A,V
43138: 54293943,9439116
Delta latt: -33,6
GPGSV 0: 3,1,12,02,89,141,17,01,55,278,18,32,43,087,23,08,41,177,,0
GPGSV 1: 3,2,12,10,28,057,,14,23,296,,22,22,313,28,03,22,227,,0
GPGSV 2: 3,3,12,27,15,158,,17,12,315,15,24,05,013,,50,,,,0
GPGSV 3: 
stack_usage: 492
$GNRMC,174211.000,A,5429.3941,N,00943.9109,E,0.00,221.89,040326,,,A,V
43139: 54293941,9439109
Delta latt: -35,-1
GPGSV 0: 3,1,12,02,89,141,17,01,55,278,17,32,43,087,23,08,41,177,,0
GPGSV 1: 3,2,12,10,28,057,,14,23,296,,22,22,313,28,03,22,227,,0
GPGSV 2: 3,3,12,27,15,158,,17,12,315,15,24,05,013,,50,,,,0
GPGSV 3: 
stack_usage: 492
$GNRMC,174212.000,A,5429.3939,N,00943.9105,E,0.00,221.89,040326,,,A,V
43140: 54293939,9439105
Delta latt: -37,-5
GPGSV 0: 3,1,12,02,89,141,19,01,55,278,17,32,43,087,,08,41,177,,0
GPGSV 1: 3,2,12,10,28,057,,14,23,296,,22,22,313,28,03,22,227,,0
GPGSV 2: 3,3,12,27,15,158,,17,12,315,14,24,05,013,,50,,,,0
GPGSV 3: 
stack_usage: 492
$GNRMC,174213.000,A,5429.3934,N,00943.9097,E,1.06,245.06,040326,,,A,V
43141: 54293934,9439097
Delta latt: -42,-13
GPGSV 0: 3,1,12,02,89,141,17,01,55,278,17,32,43,087,24,08,41,177,,0
GPGSV 1: 3,2,12,10,28,057,,14,23,296,,22,22,313,28,03,22,227,,0
GPGSV 2: 3,3,12,27,15,158,,17,12,315,14,24,05,013,,50,,,,0
GPGSV 3: 
stack_usage: 48waiting for GNSS...
stack_usage: 400
$GNRMC,174225.000,A,5429.3909,N,00943.9096,E,0.96,194.37,040326,,,A,V
43153: 54293909,9439096
Delta latt: 0,0
GPGSV 0: 3,1,11,02,89,141,17,01,55,278,19,32,43,087,25,08,41,177,,0
GPGSV 1: 
GPGSV 2: 
GPGSV 3: 
stack_usage: 492
$GNRMC,174225.000,A,5429.3909,N,00943.9096,E,0.96,194.37,040326,,,A,V
43153: 54293909,9439096
Delta latt: 0,0
GPGSV 0: 3,1,11,02,89,141,17,01,55,278,19,32,43,087,25,08,41,177,,0
GPGSV 1: 3,2,11,10,28,057,,14,23,296,,22,22,313,28,03,22,227,,0
GPGSV 2: 3,3,11,27,15,158,,17,12,315,,24,05,013,,0
GPGSV 3: 
stack_usage: 492
$GNRMC,174226.000,A,5429.3906,N,00943.9094,E,1.25,198.33,040326,,,A,V
43154: 54293906,9439094
Delta latt: -3,-2
GPGSV 0: 3,1,11,02,89,141,17,01,55,278,19,32,43,087,25,08,41,177,,0
GPGSV 1: 3,2,11,10,28,057,,14,23,296,,22,22,313,28,03,22,227,,0
GPGSV 2: 3,3,11,27,15,158,,17,12,315,,24,05,013,,0
GPGSV 3: 
stack_usage: 492
$GNRMC,174227.000,A,5429.3905,N,00943.9092,E,0.84,166.08,040326,,,A,V
43155: 54293905,9439092
Delta latt: -4,-4
GPGSV 0: 3,1,11,02,89,141,16,01,55,278,19,32,43,087,25,08,41,177,,0
GPGSV 1: 3,2,11,10,28,057,,14,23,296,,22,22,313,28,03,22,227,,0
GPGSV 2: 3,3,11,27,15,158,,17,12,315,,24,05,013,,0
GPGSV 3: 
stack_usage: 492
$GNRMC,174228.000,A,5429.3905,N,00943.9094,E,0.00,166.08,040326,,,A,V
43156: 54293905,9439094
Delta latt: -4,-2
GPGSV 0: 3,1,11,02,89,141,16,01,55,278,19,32,43,087,25,08,41,177,,0
GPGSV 1: 3,2,11,10,28,057,,14,23,296,,22,22,313,28,03,22,227,,0
GPGSV 2: 3,3,11,27,15,158,,17,12,315,,24,05,013,,0
GPGSV 3: 
stack_usage: 492
$GNRMC,174229.000,A,5429.3906,N,00943.9097,E,0.00,166.08,040326,,,A,V
43157: 54293906,9439097
Delta latt: -3,1
GPGSV 0: 3,1,11,02,89,141,15,01,55,278,19,32,43,087,25,08,41,177,,0
GPGSV 1: 3,2,11,10,28,057,,14,23,296,,22,22,313,29,03,22,227,,0
GPGSV 2: 3,3,11,27,15,158,,17,12,315,,24,05,013,,0
GPGSV 3: 
stack_usage: 492
$GNRMC,174230.000,A,5429.3908,N,00943.9100,E,0.84,72.06,040326,,,A,V
43158: 54293908,9439100
Delta latt: -1,4
GPGSV 0: 3,1,12,02,89,141,15,01,55,278,19,32,43,087,26,08,41,177,16,0
GPGSV 1: 3,2,12,10,28,057,,14,23,296,,22,22,313,29,03,22,227,,0
GPGSV 2: 3,3,12,27,15,158,,17,12,315,17,24,05,013,,48,,,,0
GPGSV 3: 
stack_usage: 492
$GNRMC,174231.000,A,5429.3908,N,00943.9100,E,0.00,72.06,040326,,,A,V
43159: 54293908,9439100
Delta latt: -1,4
GPGSV 0: 3,1,12,02,89,141,16,01,55,278,19,32,43,087,26,08,41,177,14,0
GPGSV 1: 3,2,12,10,28,057,,14,23,296,,22,22,313,28,03,22,227,,0
GPGSV 2: 3,3,12,27,15,158,,17,12,315,17,24,05,013,,48,,,,0
GPGSV 3: 
stack_usage: 492
$GNRMC,174232.000,A,5429.3908,N,00943.9100,E,1.05,44.67,040326,,,A,V
43160: 54293908,9439100
Delta latt: -1,4
GPGSV 0: 3,1,12,02,89,141,17,01,55,278,19,32,43,087,26,08,41,177,14,0
GPGSV 1: 3,2,12,10,28,057,,14,23,296,,22,22,313,28,03,22,227,,0
GPGSV 2: 3,3,12,27,15,158,,17,12,315,17,24,05,013,,48,,,,0
GPGSV 3: 
stack_usage: 492
$GNRMC,174233.000,A,5429.3908,N,00943.9100,E,0.00,72.06,040326,,,A,V
43161: 54293908,9439100
Delta latt: -1,4
GPGSV 0: 3,1,12,02,89,141,16,01,55,278,19,32,43,087,26,08,41,177,14,0
GPGSV 1: 3,2,12,10,28,057,,14,23,296,,22,22,313,28,03,22,227,,0
GPGSV 2: 3,3,12,27,15,158,,17,12,315,17,24,05,013,,48,,,,0
GPGSV 3: 
stack_usage: 492
$GNRMC,174234.000,A,5429.3908,N,00943.9100,E,0.00,72.06,040326,,,A,V
43162: 54293908,9439100
Delta latt: -1,4
GPGSV 0: 3,1,12,02,89,141,14,01,55,278,19,32,43,087,26,08,41,177,13,0
GPGSV 1: 3,2,12,10,28,057,,14,23,296,,22,22,313,28,03,22,227,,0
GPGSV 2: 3,3,12,27,15,158,,17,12,315,17,24,05,013,,48,,,,0
GPGSV 3: 
stack_usage: 492
$GNRMC,174235.000,A,5429.3908,N,00943.9100,E,0.81,204.18,040326,,,A,V
43163: 54293908,9439100
Delta latt: -1,4
GPGSV 0: 3,1,12,02,89,141,16,01,55,278,20,32,43,087,26,08,41,177,13,0
GPGSV 1: 3,2,12,10,28,057,,14,23,296,,22,22,313,28,03,22,227,,0
GPGSV 2: 3,3,12,27,15,158,,17,12,315,17,24,05,013,,48,,,,0
GPGSV 3: 
stack_usage: 492
$GNRMC,174236.000,A,5429.3908,N,00943.9100,E,0.00,72.06,040326,,,A,V
43164: 54293908,9439100
Delta latt: -1,4
GPGSV 0: 3,1,12,02,89,141,19,01,55,278,21,32,43,087,26,08,41,177,13,0
GPGSV 1: 3,2,12,10,28,057,,37,26,165,,14,23,296,,22,22,313,28,0
GPGSV 2: 3,3,12,03,22,227,,27,15,158,,17,12,315,17,24,05,013,,0
GPGSV 3: 
stack_usage: 492
$GNRMC,174237.000,A,5429.3908,N,00943.9100,E,0.00,72.06,040326,,,A,V
43165: 54293908,9439100
Delta latt: -1,4
GPGSV 0: 3,1,12,02,89,141,20,01,55,278,21,32,43,087,26,08,41,177,13,0
GPGSV 1: 3,2,12,10,28,057,,37,26,165,,14,23,296,,22,22,313,28,0
GPGSV 2: 3,3,12,03,22,227,,27,15,158,,17,12,315,17,24,05,013,,0
GPGSV 3: 
stack_usage: 492
$GNRMC,174238.000,A,5429.3908,N,00943.9100,E,1.27,99.86,040326,,,A,V
43166: 54293908,9439100
Delta latt: -1,4
GPGSV 0: 3,1,12,02,89,141,20,01,55,278,20,32,43,087,26,08,41,177,,0
GPGSV 1: 3,2,12,10,28,057,,37,26,165,,14,23,296,,22,22,313,28,0
GPGSV 2: 3,3,12,03,22,227,,27,15,158,,17,12,315,17,24,05,013,,0
GPGSV 3: 
stack_usage: 492
$GNRMC,174239.000,A,5429.3908,N,00943.9100,E,0.00,72.06,040326,,,A,V
43167: 54293908,9439100
Delta latt: -1,4
GPGSV 0: 3,1,12,02,89,141,20,01,55,278,20,32,43,087,26,08,41,177,,0
GPGSV 1: 3,2,12,10,28,057,,37,26,165,,14,23,296,,22,22,313,29,0
GPGSV 2: 3,3,12,03,22,227,,27,15,158,,17,12,315,17,24,05,013,,0
GPGSV 3: 
stack_usage: 492
$GNRMC,174240.000,A,5429.3908,N,00943.9100,E,0.00,72.06,040326,,,A,V
43168: 54293908,9439100
Delta latt: -1,4
GPGSV 0: 3,1,12,02,89,141,,01,55,278,20,32,43,087,26,08,41,177,,0
GPGSV 1: 3,2,12,10,28,057,,37,26,165,,14,23,296,,22,22,313,29,0
GPGSV 2: 3,3,12,03,22,227,,27,15,158,,17,12,315,17,24,05,013,,0
GPGSV 3: 
stack_usage: 492
$GNRMC,174241.000,A,5429.3908,N,00943.9100,E,0.00,72.06,040326,,,A,V
43169: 54293908,9439100
Delta latt: -1,4
GPGSV 0: 3,1,12,02,89,141,,01,55,278,20,32,43,087,25,08,41,177,,0
GPGSV 1: 3,2,12,10,28,057,,37,26,165,,14,23,296,,22,22,313,29,0
GPGSV 2: 3,3,12,03,22,227,,27,15,158,,17,12,315,17,24,05,013,,0
GPGSV 3: 
stack_usage: 492
$GNRMC,174242.000,A,5429.3908,N,00943.9100,E,0.00,72.06,040326,,,A,V
43170: 54293908,9439100
Delta latt: -1,4
GPGSV 0: 3,1,12,02,89,141,,01,55,278,20,32,43,087,25,08,41,177,14,0
GPGSV 1: 3,2,12,10,28,057,,37,26,165,,14,23,296,,22,22,313,29,0
GPGSV 2: 3,3,12,03,22,227,,27,15,158,,17,12,315,17,24,05,013,,0
GPGSV 3: 
stack_usage: 492
$GNRMC,174243.000,A,5429.3908,N,00943.9100,E,0.00,72.06,040326,,,A,V
43171: 54293908,9439100
Delta latt: -1,4
GPGSV 0: 3,1,12,02,89,141,,01,55,278,20,32,43,087,25,08,41,177,15,0
GPGSV 1: 3,2,12,10,28,057,,37,26,165,,14,23,296,,22,22,313,29,0
GPGSV 2: 3,3,12,03,22,227,,27,15,158,,17,12,315,17,24,05,013,,0
GPGSV 3: 
stack_usage: 492
$GNRMC,174244.000,A,5429.3908,N,00943.9100,E,1.35,217.13,040326,,,A,V
43172: 54293908,9439100
Delta latt: -1,4
GPGSV 0: 3,1,12,02,89,141,,01,56,278,21,32,43,087,25,08,41,177,,0
GPGSV 1: 3,2,12,10,28,057,,37,26,165,,14,23,296,,22,22,313,29,0
GPGSV 2: 3,3,12,03,22,227,,27,15,158,,17,12,315,17,24,05,013,,0
GPGSV 3: 
stack_usage: 492
$GNRMC,174245.000,A,5429.3926,N,00943.9097,E,1.53,229.48,040326,,,A,V
43173: 54293926,9439097
Delta latt: 17,1
GPGSV 0: 3,1,11,02,88,130,,01,56,278,21,32,43,087,25,08,41,177,,0
GPGSV 1: 3,2,11,10,28,057,,14,23,296,,22,22,313,30,03,22,227,,0
GPGSV 2: 3,3,11,27,15,158,,17,12,315,17,24,05,013,,0
GPGSV 3: 
stack_usage: 492
$GNRMC,174246.000,A,5429.3924,N,00943.9091,E,1.30,210.32,040326,,,A,V
43174: 54293924,9439091
Delta latt: 15,-5
GPGSV 0: 3,1,11,02,88,130,,01,56,278,21,32,43,087,25,08,41,177,,0
GPGSV 1: 3,2,11,10,28,057,,14,23,296,,22,22,313,30,03,22,227,,0
GPGSV 2: 3,3,11,27,15,158,,17,12,315,17,24,05,013,,0
GPGSV 3: 
stack_usage: 492
$GNRMC,174247.000,A,5429.3921,N,00943.9086,E,1.19,199.77,040326,,,A,V
43175: 54293921,9439086
Delta latt: 12,-10
GPGSV 0: 3,1,11,02,88,130,,01,56,278,21,32,43,087,25,08,41,177,,0
GPGSV 1: 3,2,11,10,28,057,,14,23,296,,22,22,313,30,03,22,227,,0
GPGSV 2: 3,3,11,27,15,158,,17,12,315,17,24,05,013,,0
GPGSV 3: 
stack_usage: 492
$GNRMC,174248.000,A,5429.3921,N,00943.9082,E,1.00,210.73,040326,,,A,V
43176: 54293921,9439082
Delta latt: 12,-14
GPGSV 0: 3,1,11,02,88,130,,01,56,278,21,32,43,087,25,08,41,177,,0
GPGSV 1: 3,2,11,10,28,057,,14,23,296,,22,22,313,30,03,22,227,,0
GPGSV 2: 3,3,11,27,15,158,,17,12,315,17,24,05,013,,0
GPGSV 3: 
stack_usage: 492
$GNRMC,174249.000,A,5429.3918,N,00943.9082,E,0.83,177.08,040326,,,A,V
43177: 54293918,9439082
Delta latt: 9,-14
GPGSV 0: 3,1,11,02,88,130,,01,56,278,20,32,43,087,25,08,41,177,,0
GPGSV 1: 3,2,11,10,28,057,,14,23,296,,22,22,313,30,03,22,227,,0
GPGSV 2: 3,3,11,27,15,158,,17,12,315,17,24,05,013,,0
GPGSV 3: 
stack_usage: 492
$GNRMC,174250.000,A,5429.3919,N,00943.9083,E,0.92,140.87,040326,,,A,V
43178: 54293919,9439083
Delta latt: 10,-13
GPGSV 0: 3,1,11,02,88,130,,01,56,278,20,32,43,087,25,08,41,177,,0
GPGSV 1: 3,2,11,10,28,057,,14,23,296,,22,22,313,30,03,22,227,,0
GPGSV 2: 3,3,11,27,15,158,,17,12,315,17,24,05,013,,0
GPGSV 3: 
stack_usage: 492
$GNRMC,174251.000,A,5429.3917,N,00943.9081,E,0.84,167.22,040326,,,A,V
43179: 54293917,9439081
Delta latt: 8,-15
GPGSV 0: 3,1,11,02,88,130,,01,56,278,20,32,43,087,25,08,40,177,,0
GPGSV 1: 3,2,11,10,28,057,,14,23,296,,22,22,313,30,03,22,227,,0
GPGSV 2: 3,3,11,27,15,158,,17,12,315,17,24,05,013,,0
GPGSV 3: 
stack_usage: 492
$GNRMC,174252.000,A,5429.3924,N,00943.9087,E,0.00,167.22,040326,,,A,V
43180: 54293924,9439087
Delta latt: 15,-9
GPGSV 0: 3,1,12,02,88,130,,01,56,278,20,32,43,087,25,08,40,177,17,0
GPGSV 1: 3,2,12,10,28,057,,39,25,161,,14,23,296,,22,22,313,30,0
GPGSV 2: 3,3,12,03,22,227,,27,15,158,,17,12,315,17,24,05,013,,0
GPGSV 3: 
stack_usage: 492
$GNRMC,174253.000,A,5429.3929,N,00943.9088,E,0.00,167.22,040326,,,A,V
43181: 54293929,9439088
Delta latt: 20,-8
GPGSV 0: 3,1,12,02,88,130,,01,56,278,19,32,43,087,25,08,40,177,17,0
GPGSV 1: 3,2,12,10,27,057,,39,25,161,,14,23,296,,22,22,313,30,0
GPGSV 2: 3,3,12,03,22,227,,27,15,158,,17,12,315,17,24,05,013,,0
GPGSV 3: 
stack_usage: 492
$GNRMC,174254.000,A,5429.3937,N,00943.9096,E,0.00,167.22,040326,,,A,V
43182: 54293937,9439096
Delta latt: 28,0
GPGSV 0: 3,1,12,02,88,130,,01,56,278,19,32,43,087,24,08,40,177,17,0
GPGSV 1: 3,2,12,10,27,057,,39,25,161,,14,23,296,,22,22,313,29,0
GPGSV 2: 3,3,12,03,22,227,,27,15,158,,17,12,315,16,24,05,013,,0
GPGSV 3: 
stack_usage: 492
$GNRMC,174255.000,A,5429.3937,N,00943.9096,E,0.00,167.22,040326,,,A,V
43183: 54293937,9439096
Delta latt: 28,0
GPGSV 0: 3,1,12,02,88,130,,01,56,278,19,32,43,087,23,08,40,177,17,0
GPGSV 1: 3,2,12,10,27,057,,39,25,161,,14,23,296,,22,22,313,29,0
GPGSV 2: 3,3,12,03,22,227,,27,15,158,,17,12,315,16,24,05,013,,0
GPGSV 3: 
stack_usage: 492
$GNRMC,174256.000,A,5429.3937,N,00943.9096,E,0.00,167.22,040326,,,A,V
43184: 54293937,9439096
Delta latt: 28,0
GPGSV 0: 3,1,12,02,88,130,,01,56,278,19,32,43,087,23,08,40,177,17,0
GPGSV 1: 3,2,12,10,27,057,,39,25,161,,14,23,296,,22,22,313,28,0
GPGSV 2: 3,3,12,03,22,227,,27,15,158,,17,12,315,16,24,05,013,,0
GPGSV 3: 
stack_usage: 492
$GNRMC,174257.000,A,5429.3937,N,00943.9096,E,0.00,167.22,040326,,,A,V
43185: 54293937,9439096
Delta latt: 28,0
GPGSV 0: 3,1,12,02,88,130,,01,56,278,19,32,43,087,23,08,40,177,17,0
GPGSV 1: 3,2,12,10,27,057,,39,25,161,,14,23,295,,22,22,313,28,0
GPGSV 2: 3,3,12,03,22,227,,27,15,158,,17,12,315,16,24,05,013,,0
GPGSV 3: 
stack_usage: 492
$GNRMC,174258.000,A,5429.3937,N,00943.9096,E,0.00,167.22,040326,,,A,V
43186: 54293937,9439096
Delta latt: 28,0
GPGSV 0: 3,1,12,02,88,130,,01,56,278,19,32,43,087,23,08,40,177,16,0
GPGSV 1: 3,2,12,10,27,057,,39,25,161,,14,23,295,,22,22,313,28,0
GPGSV 2: 3,3,12,03,22,227,,27,15,158,,17,12,315,16,24,05,013,,0
GPGSV 3: 
stack_usage: 492
$GNRMC,174259.000,A,5429.3937,N,00943.9096,E,0.91,229.91,040326,,,A,V
43187: 54293937,9439096
Delta latt: 28,0
GPGSV 0: 3,1,12,02,88,130,,01,56,278,20,32,43,087,23,08,40,177,16,0
GPGSV 1: 3,2,12,10,27,057,,39,25,161,,14,23,295,,22,22,313,29,0
GPGSV 2: 3,3,12,03,22,227,,27,15,158,,17,12,315,16,24,05,013,,0
GPGSV 3: 
stack_usage: 492
$GNRMC,174300.000,A,5429.3980,N,00943.9137,E,1.28,198.19,040326,,,A,V
43228: 54293980,9439137
Delta latt: 71,41
GPGSV 0: 3,1,12,02,88,130,,01,56,278,21,32,43,087,23,08,40,177,15,0
GPGSV 1: 3,2,12,10,27,057,,39,25,161,,14,23,295,,22,22,313,29,0
GPGSV 2: 3,3,12,03,22,227,,27,15,158,,17,13,315,16,24,05,013,,0
GPGSV 3: 
stack_usage: 492
$GNRMC,174301.000,A,5429.3978,N,00943.9135,E,1.11,200.32,040326,,,A,V
43229: 54293978,9439135
Delta latt: 69,39
GPGSV 0: 3,1,12,02,88,130,,01,56,278,21,32,43,087,22,08,40,177,15,0
GPGSV 1: 3,2,12,10,27,057,,14,23,295,,33,23,209,,22,22,313,29,0
GPGSV 2: 3,3,12,03,22,227,,27,15,158,,17,13,315,16,24,05,013,,0
GPGSV 3: 
stack_usage: 492
$GNRMC,174302.000,A,5429.3978,N,00943.9134,E,0.00,200.32,040326,,,A,V
43230: 54293978,9439134
Delta latt: 69,38
GPGSV 0: 3,1,12,02,88,130,,01,56,278,20,32,43,087,22,08,40,177,15,0
GPGSV 1: 3,2,12,10,27,057,,14,23,295,,33,23,209,,22,22,313,29,0
GPGSV 2: 3,3,12,03,22,227,,27,15,158,,17,13,315,15,24,05,013,,0
GPGSV 3: 
stack_usage: 492
$GNRMC,174303.000,A,5429.3984,N,00943.9140,E,0.92,64.69,040326,,,A,V
43231: 54293984,9439140
Delta latt: 75,44
GPGSV 0: 3,1,12,02,88,130,,01,56,278,20,32,43,087,21,08,40,177,15,0
GPGSV 1: 3,2,12,10,27,057,,14,23,295,,33,23,209,,22,22,313,29,0
GPGSV 2: 3,3,12,03,22,227,,27,15,158,,17,13,315,16,24,05,013,,0
GPGSV 3: 
stack_usage: 492
$GNRMC,174304.000,A,5429.3991,N,00943.9153,E,1.17,54.08,040326,,,A,V
43232: 54293991,9439153
Delta latt: 82,57
GPGSV 0: 3,1,12,02,88,130,,01,56,278,20,32,43,087,21,08,40,177,13,0
GPGSV 1: 3,2,12,10,27,057,,14,23,295,,33,23,209,,22,22,313,29,0
GPGSV 2: 3,3,12,03,22,227,,27,15,158,,17,13,315,16,24,05,013,,0
GPGSV 3: 
stack_usage: 492
$GNRMC,174305.000,A,5429.3992,N,00943.9158,E,0.95,44.95,040326,,,A,V
43233: 54293992,9439158
Delta latt: 83,62
GPGSV 0: 3,1,12,02,88,130,,01,56,278,20,32,43,087,21,08,40,177,13,0
GPGSV 1: 3,2,12,10,27,057,,14,23,295,,33,23,209,,22,22,312,29,0
GPGSV 2: 3,3,12,03,22,227,,27,15,158,,17,13,315,16,24,05,013,,0
GPGSV 3: 
stack_usage: 492
$GNRMC,174306.000,A,5429.3991,N,00943.9159,E,0.00,44.95,040326,,,A,V
43234: 54293991,9439159
Delta latt: 82,63
GPGSV 0: 3,1,12,02,88,130,,01,56,278,20,32,43,087,20,08,40,177,15,0
GPGSV 1: 3,2,12,10,27,057,,14,23,295,,33,23,209,,22,22,312,29,0
GPGSV 2: 3,3,12,03,22,227,,27,15,158,,17,13,315,16,24,05,013,,0
GPGSV 3: 
stack_usage: 492
$GNRMC,174307.000,A,5429.3990,N,00943.9159,E,0.00,44.95,040326,,,A,V
43235: 54293990,9439159
Delta latt: 81,63
GPGSV 0: 3,1,12,02,88,130,,01,56,278,20,32,43,087,20,08,40,177,15,0
GPGSV 1: 3,2,12,10,27,057,,14,23,295,,33,23,209,,22,22,312,29,0
GPGSV 2: 3,3,12,03,22,227,,27,15,158,,17,13,315,16,24,05,012,,0
GPGSV 3: 
stack_usage: 492
$GNRMC,174308.000,A,5429.3989,N,00943.9159,E,0.00,44.95,040326,,,A,V
43236: 54293989,9439159
Delta latt: 80,63
GPGSV 0: 3,1,12,02,88,130,,01,56,278,20,32,43,087,20,08,40,177,12,0
GPGSV 1: 3,2,12,10,27,057,,14,23,295,,33,23,209,,22,22,312,29,0
GPGSV 2: 3,3,12,03,22,227,,27,15,158,,17,13,315,16,24,05,012,,0
GPGSV 3: 
stack_usage: 492
$GNRMC,174309.000,A,5429.3989,N,00943.9159,E,0.00,44.95,040326,,,A,V
43237: 54293989,9439159
Delta latt: 80,63
GPGSV 0: 3,1,12,02,88,130,,01,56,278,20,32,43,087,20,08,40,177,13,0
GPGSV 1: 3,2,12,10,27,057,,14,23,295,,33,23,209,,22,22,312,29,0
GPGSV 2: 3,3,12,03,22,227,,27,15,158,,17,13,315,16,24,05,012,,0
GPGSV 3: 
stack_usage: 492
$GNRMC,174310.000,A,5429.3989,N,00943.9159,E,0.00,44.95,040326,,,A,V
43238: 54293989,9439159
Delta latt: 80,63
GPGSV 0: 3,1,12,02,88,130,,01,56,278,20,32,43,087,20,08,40,177,13,0
GPGSV 1: 3,2,12,10,27,057,,14,23,295,,22,22,312,29,03,22,227,,0
GPGSV 2: 3,3,12,27,14,158,,17,13,315,16,40,11,120,,24,05,012,,0
GPGSV 3: 
stack_usage: 492
$GNRMC,174311.000,A,5429.3989,N,00943.9159,E,0.00,44.95,040326,,,A,V
43239: 54293989,9439159
Delta latt: 80,63
GPGSV 0: 3,1,12,02,88,130,,01,56,278,20,32,43,087,20,08,40,177,13,0
GPGSV 1: 3,2,12,10,27,057,,14,23,295,,22,22,312,29,03,22,227,,0
GPGSV 2: 3,3,12,27,14,158,,17,13,315,16,40,11,120,,24,05,012,,0
GPGSV 3: 
stack_usage: 492
$GNRMC,174312.000,A,5429.3989,N,00943.9159,E,0.00,44.95,040326,,,A,V
43240: 54293989,9439159
Delta latt: 80,63
GPGSV 0: 3,1,12,02,88,130,,01,56,278,19,32,43,087,20,08,40,177,10,0
GPGSV 1: 3,2,12,10,27,057,,14,23,295,,22,22,312,29,03,22,227,,0
GPGSV 2: 3,3,12,27,14,158,,17,13,315,15,40,11,120,,24,05,012,,0
GPGSV 3: 
stack_usage: 492
$GNRMC,174313.000,A,5429.3989,N,00943.9159,E,0.83,205.46,040326,,,A,V
43241: 54293989,9439159
Delta latt: 80,63
GPGSV 0: 3,1,12,02,88,130,,01,56,278,19,32,43,087,20,08,40,177,13,0
GPGSV 1: 3,2,12,10,27,057,,14,23,295,,22,22,312,29,03,22,227,,0
GPGSV 2: 3,3,12,27,14,158,,17,13,315,16,40,11,120,,24,05,012,,0
GPGSV 3: 
stack_usage: 492
$GNRMC,174314.000,A,5429.3984,N,00943.9160,E,0.88,227.48,040326,,,A,V
43242: 54293984,9439160
Delta latt: 75,64
GPGSV 0: 3,1,12,02,88,130,,01,56,278,20,32,43,087,21,08,40,177,13,0
GPGSV 1: 3,2,12,10,27,057,,14,23,295,,22,22,312,29,03,22,227,,0
GPGSV 2: 3,3,12,27,14,158,,17,13,315,16,40,11,120,,24,05,012,,0
GPGSV 3: 
stack_usage: 492
$GNRMC,174315.000,A,5429.3983,N,00943.9158,E,1.17,233.26,040326,,,A,V
43243: 54293983,9439158
Delta latt: 74,62
GPGSV 0: 3,1,12,02,88,130,,01,56,278,21,32,43,086,20,08,40,177,,0
GPGSV 1: 3,2,12,10,27,057,,14,23,295,,22,22,312,29,03,22,227,,0
GPGSV 2: 3,3,12,27,14,158,,17,13,315,16,40,11,120,,24,05,012,,0
GPGSV 3: 
stack_usage: 492
$GNRMC,174316.000,A,5429.3981,N,00943.9154,E,1.50,225.29,040326,,,A,V
43244: 54293981,9439154
Delta latt: 72,58
GPGSV 0: 3,1,12,02,88,130,,01,56,278,22,32,43,086,20,08,40,177,,0
GPGSV 1: 3,2,12,10,27,057,,14,23,295,,22,22,312,29,03,22,227,,0
GPGSV 2: 3,3,12,27,14,158,,17,13,315,16,40,11,120,,24,05,012,,0
GPGSV 3: 
stack_usage: 492
$GNRMC,174317.000,A,5429.3981,N,00943.9155,E,0.00,225.29,040326,,,A,V
43245: 54293981,9439155
Delta latt: 72,59
GPGSV 0: 3,1,12,02,88,130,,01,56,278,22,32,43,086,20,08,40,177,,0
GPGSV 1: 3,2,12,10,27,057,,14,23,295,,22,22,312,29,03,22,227,,0
GPGSV 2: 3,3,12,27,14,158,,17,13,315,15,40,11,120,,24,05,012,,0
GPGSV 3: 
stack_usage: 492
$GNRMC,174318.000,A,5429.3981,N,00943.9157,E,0.00,225.29,040326,,,A,V
43246: 54293981,9439157
Delta latt: 72,61
GPGSV 0: 3,1,12,02,88,130,,01,56,278,22,32,43,086,20,08,40,177,,0
GPGSV 1: 3,2,12,10,27,057,,14,23,295,,22,22,312,29,03,22,227,,0
GPGSV 2: 3,3,12,27,14,158,,17,13,315,14,40,11,120,,24,05,012,,0
GPGSV 3: 
stack_usage: 492
$GNRMC,174319.000,A,5429.3990,N,00943.9167,E,0.00,93.59,040326,,,A,V
43247: 54293990,9439167
Delta latt: 81,71
GPGSV 0: 3,1,12,02,88,130,,01,56,278,22,32,43,086,21,08,40,177,,0
GPGSV 1: 3,2,12,10,27,057,,14,23,295,,22,22,312,29,03,22,227,16,0
GPGSV 2: 3,3,12,27,14,158,,17,13,315,15,44,10,118,,24,05,012,,0
GPGSV 3: 
stack_usage: 492
$GNRMC,174320.000,A,5429.3990,N,00943.9167,E,0.00,93.59,040326,,,A,V
43248: 54293990,9439167
Delta latt: 81,71
GPGSV 0: 3,1,12,02,88,130,,01,56,278,22,32,43,086,21,08,40,177,,0
GPGSV 1: 3,2,12,10,27,057,,14,23,295,,22,22,312,28,03,22,227,16,0
GPGSV 2: 3,3,12,27,14,158,,17,13,315,15,44,10,118,,24,05,012,,0
GPGSV 3: 
stack_usage: 492
$GNRMC,174321.000,A,5429.3990,N,00943.9167,E,0.00,93.59,040326,,,A,V
43249: 54293990,9439167
Delta latt: 81,71
GPGSV 0: 3,1,12,02,88,130,,01,56,278,21,32,43,086,21,08,40,177,,0
GPGSV 1: 3,2,12,10,27,057,,14,23,295,,22,22,312,27,03,22,227,16,0
GPGSV 2: 3,3,12,27,14,158,,17,13,315,15,44,10,118,,24,05,012,,0
GPGSV 3: 
stack_usage: 492
$GNRMC,174322.000,A,5429.3990,N,00943.9167,E,0.00,93.59,040326,,,A,V
43250: 54293990,9439167
Delta latt: 81,71
GPGSV 0: 3,1,12,02,88,130,,01,56,278,21,32,43,086,22,08,40,177,,0
GPGSV 1: 3,2,12,10,27,057,,14,23,295,,22,22,312,27,03,22,227,16,0
GPGSV 2: 3,3,12,27,14,158,,17,13,315,15,44,10,118,,24,05,012,,0
GPGSV 3: 
stack_usage: 492
$GNRMC,174323.000,A,5429.3990,N,00943.9167,E,0.00,93.59,040326,,,A,V
43251: 54293990,9439167
Delta latt: 81,71
GPGSV 0: 3,1,12,02,88,130,,01,56,278,22,32,43,086,22,08,40,177,,0
GPGSV 1: 3,2,12,10,27,057,,14,23,295,,22,22,312,27,03,22,227,16,0
GPGSV 2: 3,3,12,27,14,158,,17,13,315,15,44,10,118,,24,05,012,,0
GPGSV 3: 
stack_usage: 492
$GNRMC,174324.000,A,5429.3990,N,00943.9167,E,0.00,93.59,040326,,,A,V
43252: 54293990,9439167
Delta latt: 81,71
GPGSV 0: 3,1,12,02,88,130,,01,56,278,22,32,43,086,22,08,40,177,17,0
GPGSV 1: 3,2,12,10,27,057,,14,23,295,,22,22,312,27,03,22,227,16,0
GPGSV 2: 3,3,12,27,14,158,,17,13,315,15,44,10,118,,24,05,012,,0
GPGSV 3: 
stack_usage: 492
$GNRMC,174325.000,A,5429.3990,N,00943.9167,E,0.00,93.59,040326,,,A,V
43253: 54293990,9439167
Delta latt: 81,71
GPGSV 0: 3,1,12,02,88,130,,01,56,278,21,32,43,086,22,08,40,177,17,0
GPGSV 1: 3,2,12,10,27,057,,14,23,295,,22,22,312,27,03,22,227,16,0
GPGSV 2: 3,3,12,27,14,158,,17,13,315,15,44,10,118,,24,05,012,,0
GPGSV 3: 
stack_usage: 492
$GNRMC,174326.000,A,5429.4042,N,00943.9220,E,0.71,30.86,040326,,,A,V
43254: 54294042,9439220
Delta latt: 133,124
GPGSV 0: 3,1,12,02,88,130,,01,56,278,21,32,43,086,22,08,40,177,17,0
GPGSV 1: 3,2,12,10,27,057,,14,23,295,,22,22,312,27,03,22,227,16,0
GPGSV 2: 3,3,12,27,14,158,,17,13,315,15,44,10,118,,24,05,012,,0
GPGSV 3: 
stack_usage: 492
$GNRMC,174327.000,A,5429.4052,N,00943.9228,E,1.42,6.85,040326,,,A,V
43255: 54294052,9439228
Delta latt: 143,132
GPGSV 0: 3,1,12,02,88,130,,01,56,278,21,32,43,086,22,08,40,177,17,0
GPGSV 1: 3,2,12,10,27,057,,14,23,295,,22,22,312,27,03,22,227,16,0
GPGSV 2: 3,3,12,27,14,158,,17,13,315,15,44,10,118,,24,05,012,,0
GPGSV 3: 
stack_usage: 492
$GNRMC,174328.000,A,5429.4058,N,00943.9233,E,0.00,6.85,040326,,,A,V
43256: 54294058,9439233
Delta latt: 149,137
GPGSV 0: 3,1,12,02,88,130,15,01,56,278,21,32,43,086,22,08,40,177,17,0
GPGSV 1: 3,2,12,10,27,057,,37,26,165,,14,23,295,,22,22,312,27,0
GPGSV 2: 3,3,12,03,22,227,16,27,14,158,,17,13,315,15,24,05,012,,0
GPGSV 3: 
stack_usage: 492
$GNRMC,174329.000,A,5429.4066,N,00943.9241,E,1.13,65.21,040326,,,A,V
43257: 54294066,9439241
Delta latt: 157,145
GPGSV 0: 3,1,12,02,88,130,17,01,56,278,21,32,43,086,22,08,40,177,16,0
GPGSV 1: 3,2,12,10,27,057,,37,26,165,,14,23,295,,22,22,312,27,0
GPGSV 2: 3,3,12,03,22,227,16,27,14,158,,17,13,315,14,24,05,012,,0
GPGSV 3: 
stack_usage: 492
$GNRMC,174330.000,A,5429.4066,N,00943.9241,E,0.00,65.21,040326,,,A,V
43258: 54294066,9439241
Delta latt: 157,145
GPGSV 0: 3,1,12,02,88,130,,01,56,278,21,32,43,086,23,08,40,177,16,0
GPGSV 1: 3,2,12,10,27,057,,37,26,165,,14,23,295,17,22,22,312,27,0
GPGSV 2: 3,3,12,03,22,227,16,27,14,158,,17,13,315,13,24,05,012,,0
GPGSV 3: 
stack_usage: 492
$GNRMC,174331.000,A,5429.4066,N,00943.9241,E,0.00,65.21,040326,,,A,V
43259: 54294066,9439241
Delta latt: 157,145
GPGSV 0: 3,1,12,02,88,130,,01,56,278,21,32,43,086,23,08,40,177,15,0
GPGSV 1: 3,2,12,10,27,057,,37,26,165,,14,23,295,16,22,22,312,28,0
GPGSV 2: 3,3,12,03,22,227,16,27,14,158,,17,13,315,12,24,05,012,,0
GPGSV 3: 
stack_usage: 492
$GNRMC,174332.000,A,5429.4066,N,00943.9241,E,0.00,65.21,040326,,,A,V
43260: 54294066,9439241
Delta latt: 157,145
GPGSV 0: 3,1,12,02,88,130,,01,56,278,22,32,43,086,23,08,40,177,16,0
GPGSV 1: 3,2,12,10,27,057,,37,26,165,,14,23,295,18,22,22,312,28,0
GPGSV 2: 3,3,12,03,22,227,17,27,14,158,,17,13,315,,24,05,012,,0
GPGSV 3: 
stack_usage: 492
$GNRMC,174333.000,A,5429.4066,N,00943.9241,E,1.68,199.92,040326,,,A,V
43261: 54294066,9439241
Delta latt: 157,145
GPGSV 0: 3,1,12,02,88,130,,01,56,278,23,32,43,086,24,08,40,177,16,0
GPGSV 1: 3,2,12,10,27,057,,37,26,165,,14,23,295,18,22,22,312,28,0
GPGSV 2: 3,3,12,03,22,227,17,27,14,158,,17,13,315,,24,05,012,,0
GPGSV 3: 
stack_usage: 492
$GNRMC,174334.000,A,5429.4061,N,00943.9228,E,1.52,194.15,040326,,,A,V
43262: 54294061,9439228
Delta latt: 152,132
GPGSV 0: 3,1,12,02,88,130,,01,56,278,22,32,43,086,23,08,40,177,16,0
GPGSV 1: 3,2,12,10,27,057,,37,26,165,,14,23,295,17,22,22,312,27,0
GPGSV 2: 3,3,12,03,22,227,17,27,14,158,,17,13,315,,24,05,012,,0
GPGSV 3: 
stack_usage: 492
$GNRMC,174335.000,A,5429.4056,N,00943.9223,E,1.55,196.80,040326,,,A,V
43263: 54294056,9439223
Delta latt: 147,127
GPGSV 0: 3,1,12,02,88,130,,01,56,278,22,32,43,086,23,08,40,177,16,0
GPGSV 1: 3,2,12,10,27,057,,37,26,165,,14,23,295,17,22,22,312,27,0
GPGSV 2: 3,3,12,03,22,227,16,27,14,158,,17,13,315,,24,05,012,,0
GPGSV 3: 
stack_usage: 492
$GNRMC,174336.000,A,5429.4054,N,00943.9221,E,1.10,199.94,040326,,,A,V
43264: 54294054,9439221
Delta latt: 145,125
GPGSV 0: 3,1,12,02,88,130,,01,56,278,22,32,43,086,23,08,40,177,15,0
GPGSV 1: 3,2,12,10,27,057,,37,26,165,,14,23,295,17,22,22,312,27,0
GPGSV 2: 3,3,12,03,22,227,16,27,14,158,,17,13,315,,24,05,012,,0
GPGSV 3: 
stack_usage: 492
$GNRMC,174337.000,A,5429.4054,N,00943.9220,E,0.79,217.52,040326,,,A,V
43265: 54294054,9439220
Delta latt: 145,124
GPGSV 0: 3,1,12,02,88,130,,01,56,278,22,32,43,086,23,08,40,177,17,0
GPGSV 1: 3,2,12,10,27,057,,39,25,161,,14,23,295,17,22,22,312,27,0
GPGSV 2: 3,3,12,03,22,227,16,27,14,158,,17,13,315,,24,05,012,,0
GPGSV 3: 
stack_usage: 492
$GNRMC,174338.000,A,5429.4053,N,00943.9219,E,0.82,171.30,040326,,,A,V
43266: 54294053,9439219
Delta latt: 144,123
GPGSV 0: 3,1,12,02,88,130,,01,56,278,22,32,43,086,23,08,40,177,12,0
GPGSV 1: 3,2,12,10,27,057,,39,25,161,,14,23,295,17,22,22,312,26,0
GPGSV 2: 3,3,12,03,22,227,16,27,14,158,,17,13,315,,24,05,012,,0
GPGSV 3: 
stack_usage: 492
$GNRMC,174339.000,A,5429.4055,N,00943.9221,E,0.00,64.89,040326,,,A,V
43267: 54294055,9439221
Delta latt: 146,125
GPGSV 0: 3,1,12,02,88,130,,01,56,278,21,32,43,086,22,08,40,177,14,0
GPGSV 1: 3,2,12,10,27,057,,39,25,161,,14,23,295,16,22,22,312,26,0
GPGSV 2: 3,3,12,03,22,227,16,27,14,158,,17,13,315,,24,05,012,,0
GPGSV 3: 
stack_usage: 492
$GNRMC,174340.000,A,5429.4055,N,00943.9222,E,0.00,64.89,040326,,,A,V
43268: 54294055,9439222
Delta latt: 146,126
GPGSV 0: 3,1,12,02,88,130,,01,56,278,22,32,43,086,22,08,40,177,15,0
GPGSV 1: 3,2,12,10,27,057,,39,25,161,,14,23,295,16,22,22,312,26,0
GPGSV 2: 3,3,12,03,22,227,16,27,14,158,,17,13,315,,24,05,012,,0
GPGSV 3: 
stack_usage: 492
$GNRMC,174341.000,A,5429.4053,N,00943.9222,E,0.00,64.89,040326,,,A,V
43269: 54294053,9439222
Delta latt: 144,126
GPGSV 0: 3,1,12,02,88,130,,01,56,278,22,32,43,086,23,08,40,177,11,0
GPGSV 1: 3,2,12,10,27,057,,39,25,161,,14,23,295,16,22,22,312,27,0
GPGSV 2: 3,3,12,03,22,227,16,27,14,158,,17,13,315,,24,05,012,,0
GPGSV 3: 
stack_usage: 492
$GNRMC,174342.000,A,5429.4053,N,00943.9222,E,0.00,64.89,040326,,,A,V
43270: 54294053,9439222
Delta latt: 144,126
GPGSV 0: 3,1,12,02,88,130,,01,56,278,22,32,43,086,23,08,40,177,12,0
GPGSV 1: 3,2,12,10,27,057,,39,25,161,,14,23,295,16,22,22,312,27,0
GPGSV 2: 3,3,12,03,22,227,16,27,14,158,,17,13,315,,24,05,012,,0
GPGSV 3: 
stack_usage: 492
$GNRMC,174343.000,A,5429.4053,N,00943.9222,E,0.00,64.89,040326,,,A,V
43271: 54294053,9439222
Delta latt: 144,126
GPGSV 0: 3,1,12,02,88,130,,01,56,278,22,32,43,086,22,08,40,177,13,0
GPGSV 1: 3,2,12,10,27,057,,39,25,161,,14,23,295,15,22,22,312,27,0
GPGSV 2: 3,3,12,03,22,227,16,27,14,158,,17,13,315,,24,05,012,,0
GPGSV 3: 
stack_usage: 492
$GNRMC,174344.000,A,5429.4053,N,00943.9222,E,0.00,64.89,040326,,,A,V
43272: 54294053,9439222
Delta latt: 144,126
GPGSV 0: 3,1,12,02,88,130,,01,56,278,22,32,43,086,22,08,40,177,14,0
GPGSV 1: 3,2,12,10,27,057,,39,25,161,,14,23,295,16,22,22,312,26,0
GPGSV 2: 3,3,12,03,22,227,15,27,14,158,,17,13,315,,24,05,012,,0
GPGSV 3: 
stack_usage: 492
$GNRMC,174345.000,A,5429.4053,N,00943.9222,E,0.00,64.89,040326,,,A,V
43273: 54294053,9439222
Delta latt: 144,126
GPGSV 0: 3,1,12,02,88,130,15,01,56,278,22,32,43,086,22,08,40,177,15,0
GPGSV 1: 3,2,12,10,27,057,,39,25,161,,14,23,295,16,22,22,312,26,0
GPGSV 2: 3,3,12,03,22,227,14,27,14,158,,17,13,315,,24,05,012,,0
GPGSV 3: 
stack_usage: 492
$GNRMC,174346.000,A,5429.4053,N,00943.9222,E,0.00,64.89,040326,,,A,V
43274: 54294053,9439222
Delta latt: 144,126
GPGSV 0: 3,1,12,02,88,130,15,01,56,278,22,32,43,086,23,08,40,177,14,0
GPGSV 1: 3,2,12,10,27,057,,39,25,161,,14,23,295,16,22,22,312,26,0
GPGSV 2: 3,3,12,03,22,227,15,27,14,158,,17,13,315,,24,05,012,,0
GPGSV 3: 
stack_usage: 492
$GNRMC,174347.000,A,5429.4053,N,00943.9222,E,0.00,64.89,040326,,,A,V
43275: 54294053,9439222
Delta latt: 144,126
GPGSV 0: 3,1,12,02,88,130,14,01,56,278,22,32,43,086,23,08,40,177,,0
GPGSV 1: 3,2,12,10,27,057,,14,23,295,16,33,23,209,,22,22,312,26,0
GPGSV 2: 3,3,12,03,22,227,15,27,14,158,,17,13,315,,24,05,012,,0
GPGSV 3: 
stack_usage: 492
$GNRMC,174348.000,A,5429.4053,N,00943.9222,E,0.00,64.89,040326,,,A,V
43276: 54294053,9439222
Delta latt: 144,126
GPGSV 0: 3,1,12,02,88,130,15,01,56,278,22,32,43,086,23,08,40,177,,0
GPGSV 1: 3,2,12,10,27,057,,14,23,295,15,33,23,209,,22,22,312,26,0
GPGSV 2: 3,3,12,03,22,227,15,27,14,158,,17,13,315,,24,05,012,,0
GPGSV 3: 
stack_usage: 492
$GNRMC,174349.000,A,5429.4053,N,00943.9222,E,0.00,64.89,040326,,,A,V
43277: 54294053,9439222
Delta latt: 144,126
GPGSV 0: 3,1,12,02,88,130,15,01,56,278,22,32,43,086,24,08,40,177,,0
GPGSV 1: 3,2,12,10,27,057,,14,23,295,15,33,23,209,,22,22,312,26,0
GPGSV 2: 3,3,12,03,22,227,15,27,14,158,,17,13,315,,24,05,012,,0
GPGSV 3: 
stack_usage: 492
$GNRMC,174350.000,A,5429.4053,N,00943.9222,E,0.96,178.49,040326,,,A,V
43278: 54294053,9439222
Delta latt: 144,126
GPGSV 0: 3,1,12,02,88,130,14,01,56,278,23,32,43,086,24,08,40,177,,0
GPGSV 1: 3,2,12,10,27,057,,14,23,295,14,33,23,209,,22,22,312,26,0
GPGSV 2: 3,3,12,03,22,227,15,27,14,158,,17,13,315,,24,05,012,,0
GPGSV 3: 
stack_usage: 492
$GNRMC,174351.000,A,5429.4043,N,00943.9228,E,1.01,190.94,040326,,,A,V
43279: 54294043,9439228
Delta latt: 134,132
GPGSV 0: 3,1,12,02,88,130,15,01,56,278,23,32,43,086,24,08,40,177,,0
GPGSV 1: 3,2,12,10,27,057,,14,23,295,14,33,23,209,,22,22,312,26,0
GPGSV 2: 3,3,12,03,22,227,15,27,14,158,,17,13,315,,24,05,012,,0
GPGSV 3: 
stack_usage: 492
$GNRMC,174352.000,A,5429.4046,N,00943.9229,E,0.00,181.65,040326,,,A,V
43280: 54294046,9439229
Delta latt: 137,133
GPGSV 0: 3,1,12,02,88,130,15,01,56,278,23,32,43,086,24,08,40,177,,0
GPGSV 1: 3,2,12,10,27,057,,14,23,295,14,33,23,209,,22,22,312,26,0
GPGSV 2: 3,3,12,03,22,227,15,27,14,158,,17,13,315,,24,05,012,,0
GPGSV 3: 
stack_usage: 492
$GNRMC,174353.000,A,5429.4050,N,00943.9235,E,0.00,181.65,040326,,,A,V
43281: 54294050,9439235
Delta latt: 141,139
GPGSV 0: 3,1,12,02,88,130,16,01,56,278,23,32,43,086,24,08,40,177,,0
GPGSV 1: 3,2,12,10,27,057,,14,23,295,,33,23,209,,22,22,312,26,0
GPGSV 2: 3,3,12,03,22,227,15,27,14,158,,17,13,315,,24,05,012,,0
GPGSV 3: 
stack_usage: 492
$GNRMC,174354.000,A,5429.4055,N,00943.9240,E,0.99,85.28,040326,,,A,V
43282: 54294055,9439240
Delta latt: 146,144
GPGSV 0: 3,1,12,02,88,130,15,01,56,278,23,32,43,086,24,08,40,177,,0
GPGSV 1: 3,2,12,10,27,057,,14,23,295,,33,23,209,,22,22,312,26,0
GPGSV 2: 3,3,12,03,22,227,15,27,14,158,,17,13,315,,24,05,012,,0
GPGSV 3: 
stack_usage: 492
$GNRMC,174355.000,A,5429.4055,N,00943.9240,E,0.00,85.28,040326,,,A,V
43283: 54294055,9439240
Delta latt: 146,144
GPGSV 0: 3,1,12,02,88,130,16,01,56,278,23,32,43,086,25,08,40,177,,0
GPGSV 1: 3,2,12,10,27,057,,14,23,295,,33,23,209,,22,22,312,26,0
GPGSV 2: 3,3,12,03,22,227,15,27,14,158,,17,13,315,,24,05,012,,0
GPGSV 3: 
stack_usage: 492
$GNRMC,174356.000,A,5429.4055,N,00943.9240,E,0.00,85.28,040326,,,A,V
43284: 54294055,9439240
Delta latt: 146,144
GPGSV 0: 3,1,12,02,88,130,16,01,56,278,23,32,43,086,25,08,40,177,,0
GPGSV 1: 3,2,12,10,27,057,,14,23,295,,33,23,209,,22,22,312,26,0
GPGSV 2: 3,3,12,03,22,227,15,27,14,158,,17,13,315,,24,05,012,,0
GPGSV 3: 
stack_usage: 492
$GNRMC,174357.000,A,5429.4055,N,00943.9240,E,0.00,85.28,040326,,,A,V
43285: 54294055,9439240
Delta latt: 146,144
GPGSV 0: 3,1,12,02,88,130,15,01,56,278,23,32,43,086,25,08,40,177,,0
GPGSV 1: 3,2,12,10,27,057,,14,23,295,,22,22,312,26,03,22,227,15,0
GPGSV 2: 3,3,12,27,14,158,,17,13,315,,40,11,120,,24,05,012,,0
GPGSV 3: 
stack_usage: 492
$GNRMC,174358.000,A,5429.4055,N,00943.9240,E,0.84,115.82,040326,,,A,V
43286: 54294055,9439240
Delta latt: 146,144
GPGSV 0: 3,1,12,02,88,130,15,01,56,278,23,32,43,086,24,08,40,177,,0
GPGSV 1: 3,2,12,10,27,057,,14,23,295,,22,22,312,26,03,22,227,15,0
GPGSV 2: 3,3,12,27,14,158,,17,13,315,,40,11,120,,24,05,012,,0
GPGSV 3: 
stack_usage: 492
$GNRMC,174359.000,A,5429.4065,N,00943.9257,E,1.26,68.43,040326,,,A,V
43287: 54294065,9439257
Delta latt: 156,161
GPGSV 0: 3,1,12,02,88,130,16,01,56,278,23,32,43,086,24,08,40,177,,0
GPGSV 1: 3,2,12,10,27,057,,14,23,295,,22,22,312,26,03,22,227,14,0
GPGSV 2: 3,3,12,27,14,158,,17,13,315,,40,11,120,,24,05,012,,0
GPGSV 3: 
stack_usage: 492
$GNRMC,174400.000,A,5429.4067,N,00943.9258,E,1.46,51.71,040326,,,A,V
43328: 54294067,9439258
Delta latt: 158,162
GPGSV 0: 3,1,12,02,88,130,16,01,56,278,23,32,43,086,24,08,40,177,,0
GPGSV 1: 3,2,12,10,27,057,,14,23,295,,22,22,312,26,03,22,227,14,0
GPGSV 2: 3,3,12,27,14,158,,17,13,315,,40,11,120,,24,05,012,,0
GPGSV 3: 
stack_usage: 492
$GNRMC,174401.000,A,5429.4068,N,00943.9260,E,0.99,66.06,040326,,,A,V
43329: 54294068,9439260
Delta latt: 159,164
GPGSV 0: 3,1,12,02,88,130,14,01,56,278,24,32,43,086,25,08,40,177,,0
GPGSV 1: 3,2,12,10,27,057,,14,23,295,,22,22,312,26,03,22,227,13,0
GPGSV 2: 3,3,12,27,14,158,,17,13,315,,40,11,120,,24,05,012,,0
GPGSV 3: 
stack_usage: 492
$GNRMC,174402.000,A,5429.4068,N,00943.9261,E,0.88,58.76,040326,,,A,V
43330: 54294068,9439261
Delta latt: 159,165
GPGSV 0: 3,1,12,02,88,130,,01,56,278,24,32,43,086,25,08,40,177,,0
GPGSV 1: 3,2,12,10,27,057,,14,23,295,,22,22,312,26,03,22,227,13,0
GPGSV 2: 3,3,12,27,14,158,,17,13,315,,40,11,120,,24,05,012,,0
GPGSV 3: 
stack_usage: 492
$GNRMC,174403.000,A,5429.4065,N,00943.9255,E,0.00,58.76,040326,,,A,V
43331: 54294065,9439255
Delta latt: 156,159
GPGSV 0: 3,1,12,02,88,130,,01,56,278,24,32,43,086,25,08,40,177,,0
GPGSV 1: 3,2,12,10,27,057,,14,23,295,,22,22,312,26,03,22,227,13,0
GPGSV 2: 3,3,12,27,14,158,,17,13,315,,40,11,120,,24,05,012,,0
GPGSV 3: 
stack_usage: 492
$GNRMC,174404.000,A,5429.4066,N,00943.9252,E,0.00,58.76,040326,,,A,V
43332: 54294066,9439252
Delta latt: 157,156
GPGSV 0: 3,1,12,02,88,130,,01,56,278,24,32,43,086,24,08,40,177,,0
GPGSV 1: 3,2,12,10,27,057,,14,23,295,,22,22,312,25,03,22,227,13,0
GPGSV 2: 3,3,12,27,14,158,,17,13,315,,40,11,120,,24,05,012,,0
GPGSV 3: 
stack_usage: 492
$GNRMC,174405.000,A,5429.4066,N,00943.9250,E,0.00,27.81,040326,,,A,V
43333: 54294066,9439250
Delta latt: 157,154
GPGSV 0: 3,1,12,02,88,130,,01,56,278,24,32,43,086,24,08,40,177,,0
GPGSV 1: 3,2,12,10,27,057,,14,23,295,,22,22,312,25,03,22,227,13,0
GPGSV 2: 3,3,12,27,14,158,,17,13,315,,40,11,120,,24,05,012,,0
GPGSV 3: 
stack_usage: 492
$GNRMC,174406.000,A,5429.4066,N,00943.9250,E,0.00,27.81,040326,,,A,V
43334: 54294066,9439250
Delta latt: 157,154
GPGSV 0: 3,1,11,02,88,130,,01,56,278,24,32,43,086,24,08,40,177,,0
GPGSV 1: 3,2,11,10,27,057,,14,23,295,,22,22,312,26,03,22,227,12,0
GPGSV 2: 3,3,11,27,14,158,,17,13,315,,24,05,012,,0
GPGSV 3: 
stack_usage: 492
$GNRMC,174407.000,A,5429.4066,N,00943.9250,E,1.01,269.55,040326,,,A,V
43335: 54294066,9439250
Delta latt: 157,154
GPGSV 0: 3,1,12,02,88,130,17,01,56,278,24,32,43,086,24,08,40,177,,0
GPGSV 1: 3,2,12,10,27,057,,14,23,295,,22,22,312,27,03,22,227,12,0
GPGSV 2: 3,3,12,27,14,158,,17,13,315,,44,10,118,,24,05,012,,0
GPGSV 3: 
stack_usage: 492
$GNRMC,174408.000,A,5429.4061,N,00943.9233,E,1.05,244.32,040326,,,A,V
43336: 54294061,9439233
Delta latt: 152,137
GPGSV 0: 3,1,12,02,88,130,16,01,56,278,23,32,43,086,24,08,40,177,,0
GPGSV 1: 3,2,12,10,27,057,,14,23,295,,22,22,312,26,03,22,227,,0
GPGSV 2: 3,3,12,27,14,158,,17,13,315,,44,10,118,,24,05,012,,0
GPGSV 3: 
stack_usage: 492
$GNRMC,174409.000,A,5429.4062,N,00943.9231,E,0.00,244.32,040326,,,A,V
43337: 54294062,9439231
Delta latt: 153,135
GPGSV 0: 3,1,12,02,88,130,14,01,56,278,23,32,43,086,24,08,40,177,,0
GPGSV 1: 3,2,12,10,27,057,,14,23,295,,22,22,312,26,03,22,227,,0
GPGSV 2: 3,3,12,27,14,158,,17,13,315,,44,10,118,,24,05,012,,0
GPGSV 3: 
stack_usage: 492
$GNRMC,174410.000,A,5429.4059,N,00943.9226,E,0.00,244.32,040326,,,A,V
43338: 54294059,9439226
Delta latt: 150,130
GPGSV 0: 3,1,12,02,88,130,15,01,56,278,23,32,43,086,24,08,40,177,,0
GPGSV 1: 3,2,12,10,27,057,,14,23,295,,22,22,312,27,03,22,227,,0
GPGSV 2: 3,3,12,27,14,158,,17,13,315,,44,10,118,,24,05,012,,0
GPGSV 3: 
stack_usage: 492
$GNRMC,174411.000,A,5429.4055,N,00943.9222,E,1.47,223.91,040326,,,A,V
43339: 54294055,9439222
Delta latt: 146,126
GPGSV 0: 3,1,12,02,88,130,16,01,56,278,23,32,43,086,24,08,40,177,,0
GPGSV 1: 3,2,12,10,27,057,,14,23,295,,22,22,312,27,03,22,227,,0
GPGSV 2: 3,3,12,27,14,158,,17,13,315,,44,10,118,,24,05,012,,0
GPGSV 3: 
stack_usage: 492
$GNRMC,174412.000,A,5429.4053,N,00943.9219,E,1.16,213.50,040326,,,A,V
43340: 54294053,9439219
Delta latt: 144,123
GPGSV 0: 3,1,12,02,88,130,16,01,56,278,23,32,43,086,24,08,40,177,,0
GPGSV 1: 3,2,12,10,27,057,,14,23,295,13,22,22,312,27,03,22,227,,0
GPGSV 2: 3,3,12,27,14,158,,17,13,315,,44,10,118,,24,05,012,,0
GPGSV 3: 
stack_usage: 492
$GNRMC,174413.000,A,5429.4050,N,00943.9214,E,0.81,210.37,040326,,,A,V
43341: 54294050,9439214
Delta latt: 141,118
GPGSV 0: 3,1,12,02,88,130,16,01,56,278,23,32,43,086,23,08,40,177,,0
GPGSV 1: 3,2,12,10,27,057,,14,23,295,,22,22,312,27,03,22,227,,0
GPGSV 2: 3,3,12,27,14,158,,17,13,315,,44,10,118,,24,05,012,,0
GPGSV 3: 
stack_usage: 492
$GNRMC,174414.000,A,5429.4047,N,00943.9210,E,0.79,180.64,040326,,,A,V
43342: 54294047,9439210
Delta latt: 138,114
GPGSV 0: 3,1,12,02,88,130,16,01,56,278,23,32,43,086,24,08,40,177,,0
GPGSV 1: 3,2,12,10,27,057,,14,23,295,,22,22,312,27,03,22,227,,0
GPGSV 2: 3,3,12,27,14,158,,17,13,315,,44,10,118,,24,05,012,,0
GPGSV 3: 
stack_usage: 492
$GNRMC,174415.000,A,5429.4046,N,00943.9211,E,0.00,180.64,040326,,,A,V
43343: 54294046,9439211
Delta latt: 137,115
GPGSV 0: 3,1,12,02,88,130,16,01,56,278,23,32,43,086,23,08,40,177,,0
GPGSV 1: 3,2,12,10,27,057,,14,23,295,,22,22,312,27,03,22,227,,0
GPGSV 2: 3,3,12,27,14,158,,17,13,315,,44,10,118,,24,05,012,,0
GPGSV 3: 
stack_usage: 492
$GNRMC,174416.000,A,5429.4044,N,00943.9208,E,0.00,180.64,040326,,,A,V
43344: 54294044,9439208
Delta latt: 135,112
GPGSV 0: 3,1,12,02,88,130,16,01,56,278,23,32,43,086,23,08,40,177,,0
GPGSV 1: 3,2,12,10,27,057,,14,23,295,,22,22,312,27,03,22,227,,0
GPGSV 2: 3,3,12,27,14,158,,17,13,315,,44,10,118,,24,05,012,,0
GPGSV 3: 
stack_usage: 492
$GNRMC,174417.000,A,5429.4039,N,00943.9202,E,0.98,212.73,040326,,,A,V
43345: 54294039,9439202
Delta latt: 130,106
GPGSV 0: 3,1,11,02,88,130,16,01,56,278,23,32,43,086,23,08,40,177,,0
GPGSV 1: 3,2,11,10,27,057,,14,23,295,,22,22,312,27,03,22,227,,0
GPGSV 2: 3,3,11,27,14,158,,17,13,315,,24,05,012,,0
GPGSV 3: 
stack_usage: 492
$GNRMC,174418.000,A,5429.4039,N,00943.9202,E,0.00,212.73,040326,,,A,V
43346: 54294039,9439202
Delta latt: 130,106
GPGSV 0: 3,1,11,02,88,130,16,01,56,278,24,32,43,086,23,08,40,177,,0
GPGSV 1: 3,2,11,10,27,057,,14,23,295,,22,22,312,27,03,22,227,,0
GPGSV 2: 3,3,11,27,14,158,,17,13,315,,24,05,012,,0
GPGSV 3: 
stack_usage: 492
$GNRMC,174419.000,A,5429.4039,N,00943.9202,E,0.00,212.73,040326,,,A,V
43347: 54294039,9439202
Delta latt: 130,106
GPGSV 0: 3,1,11,02,88,130,16,01,56,278,24,32,43,086,23,08,40,177,,0
GPGSV 1: 3,2,11,10,27,057,,14,23,295,,22,22,312,28,03,22,227,,0
GPGSV 2: 3,3,11,27,14,158,,17,13,315,,24,05,012,,0
GPGSV 3: 
stack_usage: 492
$GNRMC,174420.000,A,5429.4039,N,00943.9202,E,0.92,251.18,040326,,,A,V
43348: 54294039,9439202
Delta latt: 130,106
GPGSV 0: 3,1,12,02,88,130,16,01,56,278,24,32,43,086,24,08,40,177,,0
GPGSV 1: 3,2,12,10,27,057,,14,23,295,16,22,22,312,28,03,22,227,,0
GPGSV 2: 3,3,12,27,14,158,,17,13,315,,24,05,012,,34,,,,0
GPGSV 3: 
stack_usage: 492
$GNRMC,174421.000,A,5429.4029,N,00943.9189,E,1.75,215.90,040326,,,A,V
43349: 54294029,9439189
Delta latt: 120,93
GPGSV 0: 3,1,12,02,88,130,19,01,56,278,23,32,43,086,24,08,40,177,,0
GPGSV 1: 3,2,12,10,27,057,,14,23,295,16,22,22,312,28,03,22,227,,0
GPGSV 2: 3,3,12,27,14,158,,17,13,315,,24,05,012,,34,,,,0
GPGSV 3: 
stack_usage: 492
$GNRMC,174422.000,A,5429.4024,N,00943.9186,E,1.80,180.02,040326,,,A,V
43350: 54294024,9439186
Delta latt: 115,90
GPGSV 0: 3,1,12,02,88,130,18,01,56,278,22,32,43,086,23,08,40,177,,0
GPGSV 1: 3,2,12,10,27,057,,14,23,295,16,22,22,312,28,03,22,227,,0
GPGSV 2: 3,3,12,27,14,158,,17,13,315,,24,05,012,,34,,,,0
GPGSV 3: 
stack_usage: 492
$GNRMC,174423.000,A,5429.4023,N,00943.9187,E,0.00,171.34,040326,,,A,V
43351: 54294023,9439187
Delta latt: 114,91
GPGSV 0: 3,1,12,02,88,130,17,01,56,278,22,32,43,086,23,08,40,177,,0
GPGSV 1: 3,2,12,10,27,057,,14,23,295,16,22,22,312,28,03,22,227,,0
GPGSV 2: 3,3,12,27,14,158,,17,13,315,,24,05,012,,34,,,,0
GPGSV 3: 
stack_usage: 492
$GNRMC,174424.000,A,5429.4018,N,00943.9182,E,1.18,196.61,040326,,,A,V
43352: 54294018,9439182
Delta latt: 109,86
GPGSV 0: 3,1,12,02,88,130,17,01,56,278,22,32,43,086,23,08,40,177,,0
GPGSV 1: 3,2,12,10,27,057,,14,23,295,16,22,22,312,27,03,22,227,,0
GPGSV 2: 3,3,12,27,14,158,,17,13,315,,24,05,012,,34,,,,0
GPGSV 3: 
stack_usage: 492
$GNRMC,174425.000,A,5429.4016,N,00943.9180,E,0.00,196.61,040326,,,A,V
43353: 54294016,9439180
Delta latt: 107,84
GPGSV 0: 3,1,12,02,88,130,15,01,56,278,22,32,43,086,23,08,40,177,,0
GPGSV 1: 3,2,12,10,27,057,,14,23,295,15,22,22,312,26,03,22,227,,0
GPGSV 2: 3,3,12,27,14,158,,17,13,315,,24,05,012,,34,,,,0
GPGSV 3: 
stack_usage: 492
$GNRMC,174426.000,A,5429.4016,N,00943.9180,E,1.41,208.79,040326,,,A,V
43354: 54294016,9439180
Delta latt: 107,84
GPGSV 0: 3,1,12,02,88,130,17,01,56,278,23,32,43,086,23,08,40,177,,0
GPGSV 1: 3,2,12,10,27,057,,14,23,295,15,22,22,312,27,03,22,227,,0
GPGSV 2: 3,3,12,27,14,158,,17,13,315,,24,05,012,,35,,,,0
GPGSV 3: 
stack_usage: 492
$GNRMC,174427.000,A,5429.4003,N,00943.9170,E,2.09,214.45,040326,,,A,V
43355: 54294003,9439170
Delta latt: 94,74
GPGSV 0: 3,1,12,02,88,130,17,01,56,278,23,32,43,086,23,08,40,177,,0
GPGSV 1: 3,2,12,10,27,057,,14,23,295,15,22,22,312,27,03,22,227,,0
GPGSV 2: 3,3,12,27,14,158,,17,13,315,,24,05,012,,35,,,,0
GPGSV 3: 
stack_usage: 492
$GNRMC,174428.000,A,5429.4007,N,00943.9175,E,0.00,214.45,040326,,,A,V
43356: 54294007,9439175
Delta latt: 98,79
GPGSV 0: 3,1,12,02,88,130,17,01,56,278,22,32,43,086,23,08,40,177,,0
