$GPGSV,3,2,12,10,28,057,,14,23,296,15,22,22,313,,03,22,227,17,0*60
$GPGSV,3,3,12,27,14,158,,17,12,315,18,24,05,013,,41,,,,0*55
$GLGSV,1,1,03,72,63,126,24,87,59,101,,80,05,013,,1*44
$GNGLL,5429.4096,N,00943.9099,E,185154.000,A,A*4D
$GPTXT,01,01,02,ANTSTATUS=OPEN*2B
$GNRMC,185154.000,A,5429.4096,N,00943.9099,E,2.17,274.88,150226,,,A,V*07
$GPVTG,274.88,T,,M,2.17,N,4.03,K,A*3F
$GPGGA,185154.000,5429.4096,N,00943.9099,E,1,6,1.53,27.1,M,45.0,M,,*62
$GNGSA,A,3,08,02,14,01,32,,,,,,,,1.79,1.53,0.92,1*0D
$GNGSA,A,3,72,,,,,,,,,,,,1.79,1.53,0.92,2*04
$GPGSV,3,1,12,02,89,148,23,01,55,278,16,32,43,086,15,08,41,177,30,0*63
$GPGSV,3,2,12,10,28,057,,14,23,296,15,22,22,313,,03,22,227,17,0*60
$GPGSV,3,3,12,27,14,158,,17,12,315,18,24,05,013,,41,,,,0*55
$GLGSV,1,1,03,72,63,126,24,87,59,101,,80,05,013,,1*44
$GNGLL,5429.4096,N,00943.9099,E,185154.000,A,A*4D
$GPTXT,01,01,02,ANTSTATUS=OPEN*2B
$GNRMC,185154.000,A,5429.4096,N,00943.9099,E,2.17,274.88,150226,,,A,V*07
$GPVTG,274.88,T,,M,2.17,N,4.03,K,A*3F
$GPGGA,185154.000,5429.4096,N,00943.9099,E,1,6,1.53,27.1,M,45.0,M,,*62
$GNGSA,A,3,08,02,14,01,32,,,,,,,,1.79,1.53,0.92,1*0D
$GNGSA,A,3,72,,,,,,,,,,,,1.79,1.53,0.92,2*04
$GPGSV,3,1,12,02,89,148,23,01,55,278,16,32,43,086,15,08,41,177,30,0*63
$GPGSV,3,2,12,10,28,057,,14,23,296,15,22,22,313,,03,22,227,17,0*60
$GPGSV,3,3,12,27,14,158,,17,12,315,18,24,05,013,,41,,,,0*55
$GLGSV,1,1,03,72,63,126,24,87,59,101,,80,05,013,,1*44
$GNGLL,5429.4096,N,00943.9099,E,185154.000,A,A*4D
$GPTXT,01,01,02,ANTSTATUS=OPEN*2B
$GNRMC,185155.000,A,5429.4091,N,00943.9109,E,1.54,274.88,150226,,,A,V*0D
$GPVTG,274.88,T,,M,1.54,N,2.85,K,A*33
$GPGGA,185155.000,5429.4091,N,00943.9109,E,1,6,1.53,27.3,M,45.0,M,,*6E
$GNGSA,A,3,08,02,14,01,32,,,,,,,,1.79,1.53,0.92,1*0D
$GNGSA,A,3,72,,,,,,,,,,,,1.79,1.53,0.92,2*04
$GPGSV,3,1,12,02,89,148,23,01,55,278,16,32,43,086,15,08,41,177,30,0*63
$GPGSV,3,2,12,10,28,057,,14,23,296,15,22,22,313,,03,22,227,17,0*60
$GPGSV,3,3,12,27,14,158,,17,12,315,18,24,05,013,,41,,,,0*55
$GLGSV,1,1,03,72,63,126,25,87,59,101,,80,05,013,,1*45
$GNGLL,5429.4091,N,00943.9109,E,185155.000,A,A*43
$GPTXT,01,01,02,ANTSTATUS=OPEN*2B
$GNRMC,185155.000,A,5429.4091,N,00943.9109,E,1.54,274.88,150226,,,A,V*0D
$GPVTG,274.88,T,,M,1.54,N,2.85,K,A*33
$GPGGA,185155.000,5429.4091,N,00943.9109,E,1,6,1.53,27.3,M,45.0,M,,*6E
$GNGSA,A,3,08,02,14,01,32,,,,,,,,1.79,1.53,0.92,1*0D
$GNGSA,A,3,72,,,,,,,,,,,,1.79,1.53,0.92,2*04
$GPGSV,3,1,12,02,89,148,23,01,55,278,16,32,43,086,15,08,41,177,30,0*63
$GPGSV,3,2,12,10,28,057,,14,23,296,15,22,22,313,,03,22,227,17,0*60
$GPGSV,3,3,12,27,14,158,,17,12,315,18,24,05,013,,41,,,,0*55
$GLGSV,1,1,03,72,63,126,25,87,59,101,,80,05,013,,1*45
$GNGLL,5429.4091,N,00943.9109,E,185155.000,A,A*43
$GPTXT,01,01,02,ANTSTATUS=OPEN*2B
$GNRMC,185156.000,A,5429.4091,N,00943.9121,E,1.83,274.88,150226,,,A,V*0E
$GPVTG,274.88,T,,M,1.83,N,3.40,K,A*31
$GPGGA,185156.000,5429.4091,N,00943.9121,E,1,6,1.53,27.3,M,45.0,M,,*67
$GNGSA,A,3,08,02,14,01,32,,,,,,,,1.79,1.53,0.92,1*0D
$GNGSA,A,3,72,,,,,,,,,,,,1.79,1.53,0.92,2*04
$GPGSV,3,1,12,02,89,148,22,01,55,278,15,32,43,086,13,08,41,177,30,0*67
$GPGSV,3,2,12,10,28,057,,14,23,296,14,22,22,313,,03,22,227,17,0*61
$GPGSV,3,3,12,27,14,158,,17,12,315,18,24,05,013,,43,,,,0*57
$GLGSV,1,1,03,72,63,126,24,87,59,101,,80,05,013,,1*44
$GNGLL,5429.4091,N,00943.9121,E,185156.000,A,A*4A
$GPTXT,01,01,02,ANTSTATUS=OPEN*2B
$GNRMC,185156.000,A,5429.4091,N,00943.9121,E,1.83,274.88,150226,,,A,V*0E
$GPVTG,274.88,T,,M,1.83,N,3.40,K,A*31
$GPGGA,185156.000,5429.4091,N,00943.9121,E,1,6,1.53,27.3,M,45.0,M,,*67
$GNGSA,A,3,08,02,14,01,32,,,,,,,,1.79,1.53,0.92,1*0D
$GNGSA,A,3,72,,,,,,,,,,,,1.79,1.53,0.92,2*04
$GPGSV,3,1,12,02,89,148,22,01,55,278,15,32,43,086,13,08,41,177,30,0*67
$GPGSV,3,2,12,10,28,057,,14,23,296,14,22,22,313,,03,22,227,17,0*61
$GPGSV,3,3,12,27,14,158,,17,12,315,18,24,05,013,,43,,,,0*57
$GLGSV,1,1,03,72,63,126,24,87,59,101,,80,05,013,,1*44
$GNGLL,5429.4091,N,00943.9121,E,185156.000,A,A*4A
$GPTXT,01,01,02,ANTSTATUS=OPEN*2B
$GNRMC,185156.000,A,5429.4091,N,00943.9121,E,1.83,274.88,150226,,,A,V*0E
$GPVTG,274.88,T,,M,1.83,N,3.40,K,A*31
$GPGGA,185156.000,5429.4091,N,00943.9121,E,1,6,1.53,27.3,M,45.0,M,,*67
$GNGSA,A,3,08,02,14,01,32,,,,,,,,1.79,1.53,0.92,1*0D
$GNGSA,A,3,72,,,,,,,,,,,,1.79,1.53,0.92,2*04
$GPGSV,3,1,12,02,89,148,22,01,55,278,15,32,43,086,13,08,41,177,30,0*67
$GPGSV,3,2,12,10,28,057,,14,23,296,14,22,22,313,,03,22,227,17,0*61
$GPGSV,3,3,12,27,14,158,,17,12,315,18,24,05,013,,43,,,,0*57
$GLGSV,1,1,03,72,63,126,24,87,59,101,,80,05,013,,1*44
$GNGLL,5429.4091,N,00943.9121,E,185156.000,A,A*4A
$GPTXT,01,01,02,ANTSTATUS=OPEN*2B
$GNRMC,185157.000,A,5429.4092,N,00943.9136,E,2.08,274.88,150226,,,A,V*0A
$GPVTG,274.88,T,,M,2.08,N,3.85,K,A*38
$GPGGA,185157.000,5429.4092,N,00943.9136,E,1,5,1.56,27.3,M,45.0,M,,*65
$GNGSA,A,3,08,02,14,01,32,,,,,,,,1.81,1.56,0.92,1*0F
$GNGSA,A,3,,,,,,,,,,,,,1.81,1.56,0.92,2*03
$GPGSV,3,1,12,02,89,148,22,01,55,278,17,32,43,086,16,08,41,177,30,0*60
$GPGSV,3,2,12,10,28,057,,14,23,296,15,22,22,313,,03,22,227,17,0*60
$GPGSV,3,3,12,27,14,158,,17,12,315,19,24,05,013,,43,,,,0*56
$GLGSV,1,1,03,72,63,126,,87,59,101,19,80,05,013,,1*4A
$GNGLL,5429.4092,N,00943.9136,E,185157.000,A,A*4E
$GPTXT,01,01,02,ANTSTATUS=OPEN*2B
$GNRMC,185157.000,A,5429.4092,N,00943.9136,E,2.08,274.88,150226,,,A,V*0A
$GPVTG,274.88,T,,M,2.08,N,3.85,K,A*38
$GPGGA,185157.000,5429.4092,N,00943.9136,E,1,5,1.56,27.3,M,45.0,M,,*65
$GNGSA,A,3,08,02,14,01,32,,,,,,,,1.81,1.56,0.92,1*0F
$GNGSA,A,3,,,,,,,,,,,,,1.81,1.56,0.92,2*03
$GPGSV,3,1,12,02,89,148,22,01,55,278,17,32,43,086,16,08,41,177,30,0*60
$GPGSV,3,2,12,10,28,057,,14,23,296,15,22,22,313,,03,22,227,17,0*60
$GPGSV,3,3,12,27,14,158,,17,12,315,19,24,05,013,,43,,,,0*56
$GLGSV,1,1,03,72,63,126,,87,59,101,19,80,05,013,,1*4A
$GNGLL,5429.4092,N,00943.9136,E,185157.000,A,A*4E
$GPTXT,01,01,02,ANTSTATUS=OPEN*2B
$GNRMC,185158.000,A,5429.4093,N,00943.9162,E,2.65,274.88,150226,,,A,V*0E
$GPVTG,274.88,T,,M,2.65,N,4.90,K,A*30
$GPGGA,185158.000,5429.4093,N,00943.9162,E,1,5,1.56,27.4,M,45.0,M,,*6D
$GNGSA,A,3,08,02,14,01,32,,,,,,,,1.81,1.56,0.92,1*0F
$GNGSA,A,3,,,,,,,,,,,,,1.81,1.56,0.92,2*03
$GPGSV,3,1,12,02,89,148,22,01,55,278,17,32,43,086,16,08,41,177,30,0*60
$GPGSV,3,2,12,10,28,057,,14,23,296,15,22,22,313,,03,22,227,17,0*60
$GPGSV,3,3,12,27,14,158,,17,12,315,19,24,05,013,,43,,,,0*56
$GLGSV,1,1,03,72,63,126,,87,59,101,18,80,05,013,,1*4B
$GNGLL,5429.4093,N,00943.9162,E,185158.000,A,A*41
$GPTXT,01,01,02,ANTSTATUS=OPEN*2B
$GNRMC,185158.000,A,5429.4093,N,00943.9162,E,2.65,274.88,150226,,,A,V*0E
$GPVTG,274.88,T,,M,2.65,N,4.90,K,A*30
$GPGGA,185158.000,5429.4093,N,00943.9162,E,1,5,1.56,27.4,M,45.0,M,,*6D
$GNGSA,A,3,08,02,14,01,32,,,,,,,,1.81,1.56,0.92,1*0F
$GNGSA,A,3,,,,,,,,,,,,,1.81,1.56,0.92,2*03
$GPGSV,3,1,12,02,89,148,22,01,55,278,17,32,43,086,16,08,41,177,30,0*60
$GPGSV,3,2,12,10,28,057,,14,23,296,15,22,22,313,,03,22,227,17,0*60
$GPGSV,3,3,12,27,14,158,,17,12,315,19,24,05,013,,43,,,,0*56
$GLGSV,1,1,03,72,63,126,,87,59,101,18,80,05,013,,1*4B
$GNGLL,5429.4093,N,00943.9162,E,185158.000,A,A*41
$GPTXT,01,01,02,ANTSTATUS=OPEN*2B
$GNRMC,185158.000,A,5429.4093,N,00943.9162,E,2.65,274.88,150226,,,A,V*0E
$GPVTG,274.88,T,,M,2.65,N,4.90,K,A*30
$GPGGA,185158.000,5429.4093,N,00943.9162,E,1,5,1.56,27.4,M,45.0,M,,*6D
$GNGSA,A,3,08,02,14,01,32,,,,,,,,1.81,1.56,0.92,1*0F
$GNGSA,A,3,,,,,,,,,,,,,1.81,1.56,0.92,2*03
$GPGSV,3,1,12,02,89,148,22,01,55,278,17,32,43,086,16,08,41,177,30,0*60
$GPGSV,3,2,12,10,28,057,,14,23,296,15,22,22,313,,03,22,227,17,0*60
$GPGSV,3,3,12,27,14,158,,17,12,315,19,24,05,013,,43,,,,0*56
$GLGSV,1,1,03,72,63,126,,87,59,101,18,80,05,013,,1*4B
$GNGLL,5429.4093,N,00943.9162,E,185158.000,A,A*41
$GPTXT,01,01,02,ANTSTATUS=OPEN*2B
$GNRMC,185159.000,A,5429.4091,N,00943.9166,E,0.14,274.88,150226,,,A,V*0D
$GPVTG,274.88,T,,M,0.14,N,0.26,K,A*3D
$GPGGA,185159.000,5429.4091,N,00943.9166,E,1,5,1.56,27.4,M,45.0,M,,*6A
$GNGSA,A,3,08,02,14,01,32,,,,,,,,1.81,1.56,0.92,1*0F
$GNGSA,A,3,,,,,,,,,,,,,1.81,1.56,0.92,2*03
$GPGSV,3,1,12,02,89,148,22,01,55,278,17,32,43,086,16,08,41,177,30,0*60
$GPGSV,3,2,12,10,28,057,,14,23,296,16,22,22,313,,03,22,227,17,0*63
$GPGSV,3,3,12,27,14,158,,17,12,315,19,24,05,013,,43,,,,0*56
$GLGSV,1,1,03,72,63,126,,87,59,101,20,80,05,013,,1*40
$GNGLL,5429.4091,N,00943.9166,E,185159.000,A,A*46
$GPTXT,01,01,02,ANTSTATUS=OPEN*2B
$GNRMC,185159.000,A,5429.4091,N,00943.9166,E,0.14,274.88,