$GNRMC,123132.000,A,5429.4077,N,00943.9120,E,0.00,1.28,240226,,,A,V*0B
$GPVTG,1.28,T,,M,0.00,N,0.00,K,A*36
$GPGGA,123132.000,5429.4077,N,00943.9120,E,1,6,1.59,-29.5,M,45.0,M,,*4F
$GNGSA,A,3,27,26,29,,,,,,,,,,1.82,1.59,0.88,1*0D
$GNGSA,A,3,85,75,76,,,,,,,,,,1.82,1.59,0.88,2*0A
$GPGSV,3,1,12,26,66,270,24,18,56,169,17,29,49,077,13,31,41,238,,0*6B
$GPGSV,3,2,12,16,35,297,,05,27,064,,28,24,208,,21,16,035,,0*6C
$GPGSV,3,3,12,25,15,133,,09,07,332,18,04,07,303,,27,05,260,14,0*63
$GLGSV,3,1,10,76,66,302,29,85,66,049,25,75,49,158,19,86,45,216,,1*76
$GLGSV,3,2,10,77,18,321,,84,17,043,,68,16,005,,69,08,052,,1*70
$GLGSV,3,3,10,67,06,319,,87,06,220,,1*7C
$GNGLL,5429.4077,N,00943.9120,E,123132.000,A,A*4D
$GPTXT,01,01,02,ANTSTATUS=OPEN*2B
$GPVTG,1.28,T,,M,0.00,N,0.00,K,A*36
$GPGGA,123132.000,5429.4077,N,00943.9120,E,1,6,1.59,-29.5,M,45.0,M,,*4F
$GNGSA,A,3,27,26,29,,,,,,,,,,1.82,1.59,0.88,1*0D
$GNGSA,A,3,85,75,76,,,,,,,,,,1.82,1.59,0.88,2*0A
$GPGSV,3,1,12,26,66,270,24,18,56,169,17,29,49,077,13,31,41,238,,0*6B
$GPGSV,3,2,12,16,35,297,,05,27,064,,28,24,208,,21,16,035,,0*6C
$GPGSV,3,3,12,25,15,133,,09,07,332,18,04,07,303,,27,05,260,14,0*63
$GLGSV,3,1,10,76,66,302,29,85,66,049,25,75,49,158,19,86,45,216,,1*76
$GLGSV,3,2,10,77,18,321,,84,17,043,,68,16,005,,69,08,052,,1*70
$GLGSV,3,3,10,67,06,319,,87,06,220,,1*7C
$GNGLL,5429.4077,N,00943.9120,E,123132.000,A,A*4D
$GPTXT,01,01,02,ANTSTATUS=OPEN*2B
$GPGGA,123132.000,5429.4077,N,00943.9120,E,1,6,1.59,-29.5,M,45.0,M,,*4F
$GNGSA,A,3,27,26,29,,,,,,,,,,1.82,1.59,0.88,1*0D
$GNGSA,A,3,85,75,76,,,,,,,,,,1.82,1.59,0.88,2*0A
$GPGSV,3,1,12,26,66,270,24,18,56,169,17,29,49,077,13,31,41,238,,0*6B
$GPGSV,3,2,12,16,35,297,,05,27,064,,28,24,208,,21,16,035,,0*6C
$GPGSV,3,3,12,25,15,133,,09,07,332,18,04,07,303,,27,05,260,14,0*63
$GLGSV,3,1,10,76,66,302,29,85,66,049,25,75,49,158,19,86,45,216,,1*76
$GLGSV,3,2,10,77,18,321,,84,17,043,,68,16,005,,69,08,052,,1*70
$GLGSV,3,3,10,67,06,319,,87,06,220,,1*7C
$GNGLL,5429.4077,N,00943.9120,E,123132.000,A,A*4D
$GPTXT,01,01,02,ANTSTATUS=OPEN*2B
$GNGSA,A,3,27,26,29,,,,,,,,,,1.82,1.59,0.88,1*0D
$GNGSA,A,3,85,75,76,,,,,,,,,,1.82,1.59,0.88,2*0A
$GPGSV,3,1,12,26,66,270,24,18,56,169,17,29,49,077,13,31,41,238,,0*6B
$GPGSV,3,2,12,16,35,297,,05,27,064,,28,24,208,,21,16,035,,0*6C
$GPGSV,3,3,12,25,15,133,,09,07,332,18,04,07,303,,27,05,260,14,0*63
$GLGSV,3,1,10,76,66,302,29,85,66,049,25,75,49,158,19,86,45,216,,1*76
$GLGSV,3,2,10,77,18,321,,84,17,043,,68,16,005,,69,08,052,,1*70
$GLGSV,3,3,10,67,06,319,,87,06,220,,1*7C
$GNGLL,5429.4077,N,00943.9120,E,123132.000,A,A*4D
$GPTXT,01,01,02,ANTSTATUS=OPEN*2B
$GNGSA,A,3,85,75,76,,,,,,,,,,1.82,1.59,0.88,2*0A
$GPGSV,3,1,12,26,66,270,24,18,56,169,17,29,49,077,13,31,41,238,,0*6B
$GPGSV,3,2,12,16,35,297,,05,27,064,,28,24,208,,21,16,035,,0*6C
$GPGSV,3,3,12,25,15,133,,09,07,332,18,04,07,303,,27,05,260,14,0*63
$GLGSV,3,1,10,76,66,302,29,85,66,049,25,75,49,158,19,86,45,216,,1*76
$GLGSV,3,2,10,77,18,321,,84,17,043,,68,16,005,,69,08,052,,1*70
$GLGSV,3,3,10,67,06,319,,87,06,220,,1*7C
$GNGLL,5429.4077,N,00943.9120,E,123132.000,A,A*4D
$GPTXT,01,01,02,ANTSTATUS=OPEN*2B
$GPGSV,3,1,12,26,66,270,24,18,56,169,17,29,49,077,13,31,41,238,,0*6B
$GPGSV,3,2,12,16,35,297,,05,27,064,,28,24,208,,21,16,035,,0*6C
$GPGSV,3,3,12,25,15,133,,09,07,332,18,04,07,303,,27,05,260,14,0*63
$GLGSV,3,1,10,76,66,302,29,85,66,049,25,75,49,158,19,86,45,216,,1*76
$GLGSV,3,2,10,77,18,321,,84,17,043,,68,16,005,,69,08,052,,1*70
$GLGSV,3,3,10,67,06,319,,87,06,220,,1*7C
$GNGLL,5429.4077,N,00943.9120,E,123132.000,A,A*4D
$GPTXT,01,01,02,ANTSTATUS=OPEN*2B
$GPGSV,3,2,12,16,35,297,,05,27,064,,28,24,208,,21,16,035,,0*6C
$GPGSV,3,3,12,25,15,133,,09,07,332,18,04,07,303,,27,05,260,14,0*63
$GLGSV,3,1,10,76,66,302,29,85,66,049,25,75,49,158,19,86,45,216,,1*76
$GLGSV,3,2,10,77,18,321,,84,17,043,,68,16,005,,69,08,052,,1*70
$GLGSV,3,3,10,67,06,319,,87,06,220,,1*7C
$GNGLL,5429.4077,N,00943.9120,E,123132.000,A,A*4D
$GPTXT,01,01,02,ANTSTATUS=OPEN*2B
$GPGSV,3,3,12,25,15,133,,09,07,332,18,04,07,303,,27,05,260,14,0*63
$GLGSV,3,1,10,76,66,302,29,85,66,049,25,75,49,158,19,86,45,216,,1*76
$GLGSV,3,2,10,77,18,321,,84,17,043,,68,16,005,,69,08,052,,1*70
$GLGSV,3,3,10,67,06,319,,87,06,220,,1*7C
$GNGLL,5429.4077,N,00943.9120,E,123132.000,A,A*4D
$GPTXT,01,01,02,ANTSTATUS=OPEN*2B
$GLGSV,3,1,10,76,66,302,29,85,66,049,25,75,49,158,19,86,45,216,,1*76
$GLGSV,3,2,10,77,18,321,,84,17,043,,68,16,005,,69,08,052,,1*70
$GLGSV,3,3,10,67,06,319,,87,06,220,,1*7C
$GNGLL,5429.4077,N,00943.9120,E,123132.000,A,A*4D
$GPTXT,01,01,02,ANTSTATUS=OPEN*2B
$GLGSV,3,2,10,77,18,321,,84,17,043,,68,16,005,,69,08,052,,1*70
$GLGSV,3,3,10,67,06,319,,87,06,220,,1*7C
$GNGLL,5429.4077,N,00943.9120,E,123132.000,A,A*4D
$GPTXT,01,01,02,ANTSTATUS=OPEN*2B
$GLGSV,3,3,10,67,06,319,,87,06,220,,1*7C
$GNGLL,5429.4077,N,00943.9120,E,123132.000,A,A*4D
$GPTXT,01,01,02,ANTSTATUS=OPEN*2B
$GNGLL,5429.4077,N,00943.9120,E,123132.000,A,A*4D
$GPTXT,01,01,02,ANTSTATUS=OPEN*2B
$GPTXT,01,01,02,ANTSTATUS=OPEN*2B
$GNRMC,123133.000,A,5429.4077,N,00943.9120,E,0.00,1.28,240226,,,A,V*0A
$GPVTG,1.28,T,,M,0.00,N,0.00,K,A*36
$GPGGA,123133.000,5429.4077,N,00943.9120,E,1,6,1.59,-29.5,M,45.0,M,,*4E
$GNGSA,A,3,27,26,29,,,,,,,,,,1.82,1.59,0.88,1*0D
$GNGSA,A,3,85,75,76,,,,,,,,,,1.82,1.59,0.88,2*0A
$GPGSV,3,1,12,26,66,270,24,18,56,169,17,29,49,077,13,31,41,238,,0*6B
$GPGSV,3,2,12,16,35,297,,05,27,064,,28,24,208,,21,16,035,,0*6C
$GPGSV,3,3,12,25,15,133,,09,07,332,18,04,07,303,,27,05,260,14,0*63
$GLGSV,3,1,10,76,66,302,29,85,66,049,25,75,49,158,19,86,45,216,,1*76
$GLGSV,3,2,10,77,18,321,,84,17,043,,68,16,005,,69,08,052,,1*70
$GLGSV,3,3,10,67,06,319,,87,06,220,,1*7C
$GNGLL,5429.4077,N,00943.9120,E,123133.000,A,A*4C
$GPTXT,01,01,02,ANTSTATUS=OPEN*2B
$GPVTG,1.28,T,,M,0.00,N,0.00,K,A*36
$GPGGA,123133.000,5429.4077,N,00943.9120,E,1,6,1.59,-29.5,M,45.0,M,,*4E
$GNGSA,A,3,27,26,29,,,,,,,,,,1.82,1.59,0.88,1*0D
$GNGSA,A,3,85,75,76,,,,,,,,,,1.82,1.59,0.88,2*0A
$GPGSV,3,1,12,26,66,270,24,18,56,169,17,29,49,077,13,31,41,238,,0*6B
$GPGSV,3,2,12,16,35,297,,05,27,064,,28,24,208,,21,16,035,,0*6C
$GPGSV,3,3,12,25,15,133,,09,07,332,18,04,07,303,,27,05,260,14,0*63
$GLGSV,3,1,10,76,66,302,29,85,66,049,25,75,49,158,19,86,45,216,,1*76
$GLGSV,3,2,10,77,18,321,,84,17,043,,68,16,005,,69,08,052,,1*70
$GLGSV,3,3,10,67,06,319,,87,06,220,,1*7C
$GNGLL,5429.4077,N,00943.9120,E,123133.000,A,A*4C
$GPTXT,01,01,02,ANTSTATUS=OPEN*2B
$GPGGA,123133.000,5429.4077,N,00943.9120,E,1,6,1.59,-29.5,M,45.0,M,,*4E
$GNGSA,A,3,27,26,29,,,,,,,,,,1.82,1.59,0.88,1*0D
$GNGSA,A,3,85,75,76,,,,,,,,,,1.82,1.59,0.88,2*0A
$GPGSV,3,1,12,26,66,270,24,18,56,169,17,29,49,077,13,31,41,238,,0*6B
$GPGSV,3,2,12,16,35,297,,05,27,064,,28,24,208,,21,16,035,,0*6C
$GPGSV,3,3,12,25,15,133,,09,07,332,18,04,07,303,,27,05,260,14,0*63
$GLGSV,3,1,10,76,66,302,29,85,66,049,25,75,49,158,19,86,45,216,,1*76
$GLGSV,3,2,10,77,18,321,,84,17,043,,68,16,005,,69,08,052,,1*70
$GLGSV,3,3,10,67,06,319,,87,06,220,,1*7C
$GNGLL,5429.4077,N,00943.9120,E,123133.000,A,A*4C
$GPTXT,01,01,02,ANTSTATUS=OPEN*2B
$GNGSA,A,3,27,26,29,,,,,,,,,,1.82,1.59,0.88,1*0D
$GNGSA,A,3,85,75,76,,,,,,,,,,1.82,1.59,0.88,2*0A
$GPGSV,3,1,12,26,66,270,24,18,56,169,17,29,49,077,13,31,41,238,,0*6B
$GPGSV,3,2,12,16,35,297,,05,27,064,,28,24,208,,21,16,035,,0*6C
$GPGSV,3,3,12,25,15,133,,09,07,332,18,04,07,303,,27,05,260,14,0*63
$GLGSV,3,1,10,76,66,302,29,85,66,049,25,75,49,158,19,86,45,216,,1*76
$GLGSV,3,2,10,77,18,321,,84,17,043,,68,16,005,,69,08,052,,1*70
$GLGSV,3,3,10,67,06,319,,87,06,220,,1*7C
$GNGLL,5429.4077,N,00943.9120,E,123133.000,A,A*4C
$GPTXT,01,01,02,ANTSTATUS=OPEN*2B
$GNGSA,A,3,85,75,76,,,,,,,,,,1.82,1.59,0.88,2*0A
$GPGSV,3,1,12,26,66,270,24,18,56,169,17,29,49,077,13,31,41,238,,0*6B
$GPGSV,3,2,12,16,35,297,,05,27,064,,28,24,208,,21,16,035,,0*6C
$GPGSV,3,3,12,25,15,133,,09,07,332,18,04,07,303,,27,05,260,14,0*63
$GLGSV,3,1,10,76,66,302,29,85,66,049,25,75,49,158,19,86,45,216,,1*76
$GLGSV,3,2,10,77,18,321,,84,17,043,,68,16,005,,69,08,052,,1*70
$GLGSV,3,3,10,67,06,319,,87,06,220,,1*7C
$GNGLL,5429.4077,N,00943.9120,E,123133.000,A,A*4C
$GPTXT,01,01,02,ANTSTATUS=OPEN*2B
$GPGSV,3,1,12,26,66,270,24,18,56,169,17,29,49,077,13,31,41,238,,0*6B
$GPGSV,3,2,12,16,35,297,,05,27,064,,28,24,208,,21,16,035,,0*6C
$GPGSV,3,3,12,25,15,133,,09,07,332,18,04,07,303,,27,05,260,14,0*63
$GLGSV,3,1,10,76,66,302,29,85,66,049,25,75,49,158,19,86,45,216,,1*76
$GLGSV,3,2,10,77,18,321,,84,17,043,,68,16,005,,69,08,052,,1*70
$GLGSV,3,3,10,67,06,319,,87,06,220,,1*7C
$GNGLL,5429.4077,N,00943.9120,E,123133.000,A,A*4C
$GPTXT,01,01,02,ANTSTATUS=OPEN*2B
$GPGSV,3,2,12,16,35,297,,05,27,064,,28,24,208,,21,16,035,,0*6C
$GPGSV,3,3,12,25,15,133,,09,07,332,18,04,07,303,,27,05,260,14,0*63
$GLGSV,3,1,10,76,66,302,29,85,66,049,25,75,49,158,19,86,45,216,,1*76
$GLGSV,3,2,10,77,18,321,,84,17,043,,68,16,005,,69,08,052,,1*70
$GLGSV,3,3,10,67,06,319,,87,06,220,,1*7C
$GNGLL,5429.4077,N,00943.9120,E,123133.000,A,A*4C
$GPTXT,01,01,02,ANTSTATUS=OPEN*2B
$GPGSV,3,3,12,25,15,133,,09,07,332,18,04,07,303,,27,05,260,14,0*63
$GLGSV,3,1,10,76,66,302,29,85,66,049,25,75,49,158,19,86,45,216,,1*76
$GLGSV,3,2,10,77,18,321,,84,17,043,,68,16,005,,69,08,052,,1*70
$GLGSV,3,3,10,67,06,319,,87,06,220,,1*7C
$GNGLL,5429.4077,N,00943.9120,E,123133.000,A,A*4C
$GPTXT,01,01,02,ANTSTATUS=OPEN*2B
$GLGSV,3,1,10,76,66,302,29,85,66,049,25,75,49,158,19,86,45,216,,1*76
$GLGSV,3,2,10,77,18,321,,84,17,043,,68,16,005,,69,08,052,,1*70
$GLGSV,3,3,10,67,06,319,,87,06,220,,1*7C
$GNGLL,5429.4077,N,00943.9120,E,123133.000,A,A*4C
$GPTXT,01,01,02,ANTSTATUS=OPEN*2B
$GLGSV,3,2,10,77,18,321,,84,17,043,,68,16,005,,69,08,052,,1*70
$GLGSV,3,3,10,67,06,319,,87,06,220,,1*7C
$GNGLL,5429.4077,N,00943.9120,E,123133.000,A,A*4C
$GPTXT,01,01,02,ANTSTATUS=OPEN*2B
$GLGSV,3,3,10,67,06,319,,87,06,220,,1*7C
$GNGLL,5429.4077,N,00943.9120,E,123133.000,A,A*4C
$GPTXT,01,01,02,ANTSTATUS=OPEN*2B
$GNGLL,5429.4077,N,00943.9120,E,123133.000,A,A*4C
$GPTXT,01,01,02,ANTSTATUS=OPEN*2B
$GPTXT,01,01,02,ANTSTATUS=OPEN*2B
$GNRMC,123134.000,A,5429.4077,N,00943.9120,E,0.00,1.28,240226,,,A,V*0D
$GPVTG,1.28,T,,M,0.00,N,0.00,K,A*36
$GPGGA,123134.000,5429.4077,N,00943.9120,E,1,5,1.78,-29.5,M,45.0,M,,*49
$GNGSA,A,3,27,26,,,,,,,,,,,2.01,1.78,0.92,1*06
$GNGSA,A,3,85,75,76,,,,,,,,,,2.01,1.78,0.92,2*0A
$GPGSV,3,1,12,26,66,270,24,18,56,169,17,29,49,077,11,31,41,238,,0*69
$GPGSV,3,2,12,16,35,297,,05,27,064,,28,24,208,,21,16,035,,0*6C
$GPGSV,3,3,12,25,15,133,,09,07,332,18,04,07,303,,27,05,260,15,0*62
$GLGSV,3,1,10,76,66,302,29,85,66,049,25,75,49,158,19,86,45,216,,1*76
$GLGSV,3,2,10,77,18,321,,84,17,043,,68,16,005,,69,08,052,,1*70
$GLGSV,3,3,10,67,06,319,,87,06,220,,1*7C
$GNGLL,5429.4077,N,00943.9120,E,123134.000,A,A*4B
$GPTXT,01,01,02,ANTSTATUS=OPEN*2B
$GPVTG,1.28,T,,M,0.00,N,0.00,K,A*36
$GPGGA,123134.000,5429.4077,N,00943.9120,E,1,5,1.78,-29.5,M,45.0,M,,*49
$GNGSA,A,3,27,26,,,,,,,,,,,2.01,1.78,0.92,1*06
$GNGSA,A,3,85,75,76,,,,,,,,,,2.01,1.78,0.92,2*0A
$GPGSV,3,1,12,26,66,270,24,18,56,169,17,29,49,077,11,31,41,238,,0*69
$GPGSV,3,2,12,16,35,297,,05,27,064,,28,24,208,,21,16,035,,0*6C
$GPGSV,3,3,12,25,15,133,,09,07,332,18,04,07,303,,27,05,260,15,0*62
$GLGSV,3,1,10,76,66,302,29,85,66,049,25,75,49,158,19,86,45,216,,1*76
$GLGSV,3,2,10,77,18,321,,84,17,043,,68,16,005,,69,08,052,,1*70
$GLGSV,3,3,10,67,06,319,,87,06,220,,1*7C
$GNGLL,5429.4077,N,00943.9120,E,123134.000,A,A*4B
$GPTXT,01,01,02,ANTSTATUS=OPEN*2B
$GPGGA,123134.000,5429.4077,N,00943.9120,E,1,5,1.78,-29.5,M,45.0,M,,*49
$GNGSA,A,3,27,26,,,,,,,,,,,2.01,1.78,0.92,1*06
$GNGSA,A,3,85,75,76,,,,,,,,,,2.01,1.78,0.92,2*0A
$GPGSV,3,1,12,26,66,270,24,18,56,169,17,29,49,077,11,31,41,238,,0*69
$GPGSV,3,2,12,16,35,297,,05,27,064,,28,24,208,,21,16,035,,0*6C
$GPGSV,3,3,12,25,15,133,,09,07,332,18,04,07,303,,27,05,260,15,0*62
$GLGSV,3,1,10,76,66,302,29,85,66,049,25,75,49,158,19,86,45,216,,1*76
$GLGSV,3,2,10,77,18,321,,84,17,043,,68,16,005,,69,08,052,,1*70
$GLGSV,3,3,10,67,06,319,,87,06,220,,1*7C
$GNGLL,5429.4077,N,00943.9120,E,123134.000,A,A*4B
$GPTXT,01,01,02,ANTSTATUS=OPEN*2B
$GNGSA,A,3,27,26,,,,,,,,,,,2.01,1.78,0.92,1*06
$GNGSA,A,3,85,75,76,,,,,,,,,,2.01,1.78,0.92,2*0A
$GPGSV,3,1,12,26,66,270,24,18,56,169,17,29,49,077,11,31,41,238,,0*69
$GPGSV,3,2,12,16,35,297,,05,27,064,,28,24,208,,21,16,035,,0*6C
$GPGSV,3,3,12,25,15,133,,09,07,332,18,04,07,303,,27,05,260,15,0*62
$GLGSV,3,1,10,76,66,302,29,85,66,049,25,75,49,158,19,86,45,216,,1*76
$GLGSV,3,2,10,77,18,321,,84,17,043,,68,16,005,,69,08,052,,1*70
$GLGSV,3,3,10,67,06,319,,87,06,220,,1*7C
$GNGLL,5429.4077,N,00943.9120,E,123134.000,A,A*4B
$GPTXT,01,01,02,ANTSTATUS=OPEN*2B
$GNGSA,A,3,85,75,76,,,,,,,,,,2.01,1.78,0.92,2*0A
$GPGSV,3,1,12,26,66,270,24,18,56,169,17,29,49,077,11,31,41,238,,0*69
$GPGSV,3,2,12,16,35,297,,05,27,064,,28,24,208,,21,16,035,,0*6C
$GPGSV,3,3,12,25,15,133,,09,07,332,18,04,07,303,,27,05,260,15,0*62
$GLGSV,3,1,10,76,66,302,29,85,66,049,25,75,49,158,19,86,45,216,,1*76
$GLGSV,3,2,10,77,18,321,,84,17,043,,68,16,005,,69,08,052,,1*70
$GLGSV,3,3,10,67,06,319,,87,06,220,,1*7C
$GNGLL,5429.4077,N,00943.9120,E,123134.000,A,A*4B
$GPTXT,01,01,02,ANTSTATUS=OPEN*2B
$GPGSV,3,1,12,26,66,270,24,18,56,169,17,29,49,077,11,31,41,238,,0*69
$GPGSV,3,2,12,16,35,297,,05,27,064,,28,24,208,,21,16,035,,0*6C
$GPGSV,3,3,12,25,15,133,,09,07,332,18,04,07,303,,27,05,260,15,0*62
$GLGSV,3,1,10,76,66,302,29,85,66,049,25,75,49,158,19,86,45,216,,1*76
$GLGSV,3,2,10,77,18,321,,84,17,043,,68,16,005,,69,08,052,,1*70
$GLGSV,3,3,10,67,06,319,,87,06,220,,1*7C
$GNGLL,5429.4077,N,00943.9120,E,123134.000,A,A*4B
$GPTXT,01,01,02,ANTSTATUS=OPEN*2B
$GPGSV,3,2,12,16,35,297,,05,27,064,,28,24,208,,21,16,035,,0*6C
$GPGSV,3,3,12,25,15,133,,09,07,332,18,04,07,303,,27,05,260,15,0*62
$GLGSV,3,1,10,76,66,302,29,85,66,049,25,75,49,158,19,86,45,216,,1*76
$GLGSV,3,2,10,77,18,321,,84,17,043,,68,16,005,,69,08,052,,1*70
$GLGSV,3,3,10,67,06,319,,87,06,220,,1*7C
$GNGLL,5429.4077,N,00943.9120,E,123134.000,A,A*4B
$GPTXT,01,01,02,ANTSTATUS=OPEN*2B
$GPGSV,3,3,12,25,15,133,,09,07,332,18,04,07,303,,27,05,260,15,0*62
$GLGSV,3,1,10,76,66,302,29,85,66,049,25,75,49,158,19,86,45,216,,1*76
$GLGSV,3,2,10,77,18,321,,84,17,043,,68,16,005,,69,08,052,,1*70
$GLGSV,3,3,10,67,06,319,,87,06,220,,1*7C
$GNGLL,5429.4077,N,00943.9120,E,123134.000,A,A*4B
$GPTXT,01,01,02,ANTSTATUS=OPEN*2B
$GLGSV,3,1,10,76,66,302,29,85,66,049,25,75,49,158,19,86,45,216,,1*76
$GLGSV,3,2,10,77,18,321,,84,17,043,,68,16,005,,69,08,052,,1*70
$GLGSV,3,3,10,67,06,319,,87,06,220,,1*7C
$GNGLL,5429.4077,N,00943.9120,E,123134.000,A,A*4B
$GPTXT,01,01,02,ANTSTATUS=OPEN*2B
$GLGSV,3,2,10,77,18,321,,84,17,043,,68,16,005,,69,08,052,,1*70
$GLGSV,3,3,10,67,06,319,,87,06,220,,1*7C
$GNGLL,5429.4077,N,00943.9120,E,123134.000,A,A*4B
$GPTXT,01,01,02,ANTSTATUS=OPEN*2B
$GLGSV,3,3,10,67,06,319,,87,06,220,,1*7C
$GNGLL,5429.4077,N,00943.9120,E,123134.000,A,A*4B
$GPTXT,01,01,02,ANTSTATUS=OPEN*2B
$GNGLL,5429.4077,N,00943.9120,E,123134.000,A,A*4B
$GPTXT,01,01,02,ANTSTATUS=OPEN*2B
$GPTXT,01,01,02,ANTSTATUS=OPEN*2B
$GNRMC,123135.000,A,5429.4077,N,00943.9120,E,0.00,1.28,240226,,,A,V*0C
$GPVTG,1.28,T,,M,0.00,N,0.00,K,A*36
$GPGGA,123135.000,5429.4077,N,00943.9120,E,1,5,1.78,-29.5,M,45.0,M,,*48
$GNGSA,A,3,27,26,,,,,,,,,,,2.01,1.78,0.92,1*06
$GNGSA,A,3,85,75,76,,,,,,,,,,2.01,1.78,0.92,2*0A
$GPGSV,3,1,12,26,66,270,24,18,56,169,17,29,49,077,10,31,41,238,,0*68
$GPGSV,3,2,12,16,35,297,,05,27,064,,28,24,208,,21,16,035,,0*6C
$GPGSV,3,3,12,25,15,133,,09,07,332,18,04,07,303,,27,05,260,15,0*62
$GLGSV,3,1,10,76,66,302,29,85,66,049,26,75,49,158,19,86,45,216,,1*75
$GLGSV,3,2,10,77,18,321,,84,17,043,,68,16,005,,69,08,052,,1*70
$GLGSV,3,3,10,67,06,319,,87,06,220,,1*7C
$GNGLL,5429.4077,N,00943.9120,E,123135.000,A,A*4A
$GPTXT,01,01,02,ANTSTATUS=OPEN*2B
$GPVTG,1.28,T,,M,0.00,N,0.00,K,A*36
$GPGGA,123135.000,5429.4077,N,00943.9120,E,1,5,1.78,-29.5,M,45.0,M,,*48
$GNGSA,A,3,27,26,,,,,,,,,,,2.01,1.78,0.92,1*06
$GNGSA,A,3,85,75,76,,,,,,,,,,2.01,1.78,0.92,2*0A
$GPGSV,3,1,12,26,66,270,24,18,56,169,17,29,49,077,10,31,41,238,,0*68
$GPGSV,3,2,12,16,35,297,,05,27,064,,28,24,208,,21,16,035,,0*6C
$GPGSV,3,3,12,25,15,133,,09,07,332,18,04,07,303,,27,05,260,15,0*62
$GLGSV,3,1,10,76,66,302,29,85,66,049,26,75,49,158,19,86,45,216,,1*75
$GLGSV,3,2,10,77,18,321,,84,17,043,,68,16,005,,69,08,052,,1*70
$GLGSV,3,3,10,67,06,319,,87,06,220,,1*7C
$GNGLL,5429.4077,N,00943.9120,E,123135.000,A,A*4A
$GPTXT,01,01,02,ANTSTATUS=OPEN*2B
$GPGGA,123135.000,5429.4077,N,00943.9120,E,1,5,1.78,-29.5,M,45.0,M,,*48
$GNGSA,A,3,27,26,,,,,,,,,,,2.01,1.78,0.92,1*06
$GNGSA,A,3,85,75,76,,,,,,,,,,2.01,1.78,0.92,2*0A
$GPGSV,3,1,12,26,66,270,24,18,56,169,17,29,49,077,10,31,41,238,,0*68
$GPGSV,3,2,12,16,35,297,,05,27,064,,28,24,208,,21,16,035,,0*6C
$GPGSV,3,3,12,25,15,133,,09,07,332,18,04,07,303,,27,05,260,15,0*62
$GLGSV,3,1,10,76,66,302,29,85,66,049,26,75,49,158,19,86,45,216,,1*75
$GLGSV,3,2,10,77,18,321,,84,17,043,,68,16,005,,69,08,052,,1*70
$GLGSV,3,3,10,67,06,319,,87,06,220,,1*7C
$GNGLL,5429.4077,N,00943.9120,E,123135.000,A,A*4A
$GPTXT,01,01,02,ANTSTATUS=OPEN*2B
$GNGSA,A,3,27,26,,,,,,,,,,,2.01,1.78,0.92,1*06
$GNGSA,A,3,85,75,76,,,,,,,,,,2.01,1.78,0.92,2*0A
$GPGSV,3,1,12,26,66,270,24,18,56,169,17,29,49,077,10,31,41,238,,0*68
$GPGSV,3,2,12,16,35,297,,05,27,064,,28,24,208,,21,16,035,,0*6C
$GPGSV,3,3,12,25,15,133,,09,07,332,18,04,07,303,,27,05,260,15,0*62
$GLGSV,3,1,10,76,66,302,29,85,66,049,26,75,49,158,19,86,45,216,,1*75
$GLGSV,3,2,10,77,18,321,,84,17,043,,68,16,005,,69,08,052,,1*70
$GLGSV,3,3,10,67,06,319,,87,06,220,,1*7C
$GNGLL,5429.4077,N,00943.9120,E,123135.000,A,A*4A
$GPTXT,01,01,02,ANTSTATUS=OPEN*2B
$GNGSA,A,3,85,75,76,,,,,,,,,,2.01,1.78,0.92,2*0A
$GPGSV,3,1,12,26,66,270,24,18,56,169,17,29,49,077,10,31,41,238,,0*68
$GPGSV,3,2,12,16,35,297,,05,27,064,,28,24,208,,21,16,035,,0*6C
$GPGSV,3,3,12,25,15,133,,09,07,332,18,04,07,303,,27,05,260,15,0*62
$GLGSV,3,1,10,76,66,302,29,85,66,049,26,75,49,158,19,86,45,216,,1*75
$GLGSV,3,2,10,77,18,321,,84,17,043,,68,16,005,,69,08,052,,1*70
$GLGSV,3,3,10,67,06,319,,87,06,220,,1*7C
$GNGLL,5429.4077,N,00943.9120,E,123135.000,A,A*4A
$GPTXT,01,01,02,ANTSTATUS=OPEN*2B
$GPGSV,3,1,12,26,66,270,24,18,56,169,17,29,49,077,10,31,41,238,,0*68
$GPGSV,3,2,12,16,35,297,,05,27,064,,28,24,208,,21,16,035,,0*6C
$GPGSV,3,3,12,25,15,133,,09,07,332,18,04,07,303,,27,05,260,15,0*62
$GLGSV,3,1,10,76,66,302,29,85,66,049,26,75,49,158,19,86,45,216,,1*75
$GLGSV,3,2,10,77,18,321,,84,17,043,,68,16,005,,69,08,052,,1*70
$GLGSV,3,3,10,67,06,319,,87,06,220,,1*7C
$GNGLL,5429.4077,N,00943.9120,E,123135.000,A,A*4A
$GPTXT,01,01,02,ANTSTATUS=OPEN*2B
$GPGSV,3,2,12,16,35,297,,05,27,064,,28,24,208,,21,16,035,,0*6C
$GPGSV,3,3,12,25,15,133,,09,07,332,18,04,07,303,,27,05,260,15,0*62
$GLGSV,3,1,10,76,66,302,29,85,66,049,26,75,49,158,19,86,45,216,,1*75
$GLGSV,3,2,10,77,18,321,,84,17,043,,68,16,005,,69,08,052,,1*70
$GLGSV,3,3,10,67,06,319,,87,06,220,,1*7C
$GNGLL,5429.4077,N,00943.9120,E,123135.000,A,A*4A
$GPTXT,01,01,02,ANTSTATUS=OPEN*2B
$GPGSV,3,3,12,25,15,133,,09,07,332,18,04,07,303,,27,05,260,15,0*62
$GLGSV,3,1,10,76,66,302,29,85,66,049,26,75,49,158,19,86,45,216,,1*75
$GLGSV,3,2,10,77,18,321,,84,17,043,,68,16,005,,69,08,052,,1*70
$GLGSV,3,3,10,67,06,319,,87,06,220,,1*7C
$GNGLL,5429.4077,N,00943.9120,E,123135.000,A,A*4A
$GPTXT,01,01,02,ANTSTATUS=OPEN*2B
$GLGSV,3,1,10,76,66,302,29,85,66,049,26,75,49,158,19,86,45,216,,1*75
$GLGSV,3,2,10,77,18,321,,84,17,043,,68,16,005,,69,08,052,,1*70
$GLGSV,3,3,10,67,06,319,,87,06,220,,1*7C
$GNGLL,5429.4077,N,00943.9120,E,123135.000,A,A*4A
$GPTXT,01,01,02,ANTSTATUS=OPEN*2B
$GLGSV,3,2,10,77,18,321,,84,17,043,,68,16,005,,69,08,052,,1*70
$GLGSV,3,3,10,67,06,319,,87,06,220,,1*7C
$GNGLL,5429.4077,N,00943.9120,E,123135.000,A,A*4A
$GPTXT,01,01,02,ANTSTATUS=OPEN*2B
$GLGSV,3,3,10,67,06,319,,87,06,220,,1*7C
$GNGLL,5429.4077,N,00943.9120,E,123135.000,A,A*4A
$GPTXT,01,01,02,ANTSTATUS=OPEN*2B
$GNGLL,5429.4077,N,00943.9120,E,123135.000,A,A*4A
$GPTXT,01,01,02,ANTSTATUS=OPEN*2B
$GPTXT,01,01,02,ANTSTATUS=OPEN*2B
$GNRMC,123136.000,A,5429.4077,N,00943.9120,E,0.96,85.57,240226,,,A,V*34
$GPVTG,85.57,T,,M,0.96,N,1.78,K,A*03
$GPGGA,123136.000,5429.4077,N,00943.9120,E,1,5,1.78,-29.5,M,45.0,M,,*4B
$GNGSA,A,3,27,26,,,,,,,,,,,2.01,1.78,0.92,1*06
$GNGSA,A,3,85,75,76,,,,,,,,,,2.01,1.78,0.92,2*0A
$GPGSV,3,1,12,26,66,270,24,18,56,169,17,29,49,077,09,31,41,238,,0*60
$GPGSV,3,2,12,16,35,297,,05,27,064,,28,24,208,,21,16,035,,0*6C
$GPGSV,3,3,12,25,15,133,,09,07,332,18,04,07,303,,27,05,260,16,0*61
$GLGSV,3,1,10,76,66,302,29,85,66,049,26,75,49,158,19,86,45,216,,1*75
$GLGSV,3,2,10,77,18,321,,84,17,043,,68,16,005,,69,08,052,,1*70
$GLGSV,3,3,10,67,06,319,,87,06,220,,1*7C
$GNGLL,5429.4077,N,00943.9120,E,123136.000,A,A*49
$GPTXT,01,01,02,ANTSTATUS=OPEN*2B
$GPVTG,85.57,T,,M,0.96,N,1.78,K,A*03
$GPGGA,123136.000,5429.4077,N,00943.9120,E,1,5,1.78,-29.5,M,45.0,M,,*4B
$GNGSA,A,3,27,26,,,,,,,,,,,2.01,1.78,0.92,1*06
$GNGSA,A,3,85,75,76,,,,,,,,,,2.01,1.78,0.92,2*0A
$GPGSV,3,1,12,26,66,270,24,18,56,169,17,29,49,077,09,31,41,238,,0*60
$GPGSV,3,2,12,16,35,297,,05,27,064,,28,24,208,,21,16,035,,0*6C
$GPGSV,3,3,12,25,15,133,,09,07,332,18,04,07,303,,27,05,260,16,0*61
$GLGSV,3,1,10,76,66,302,29,85,66,049,26,75,49,158,19,86,45,216,,1*75
$GLGSV,3,2,10,77,18,321,,84,17,043,,68,16,005,,69,08,052,,1*70
$GLGSV,3,3,10,67,06,319,,87,06,220,,1*7C
$GNGLL,5429.4077,N,00943.9120,E,123136.000,A,A*49
$GPTXT,01,01,02,ANTSTATUS=OPEN*2B
$GPGGA,123136.000,5429.4077,N,00943.9120,E,1,5,1.78,-29.5,M,45.0,M,,*4B
$GNGSA,A,3,27,26,,,,,,,,,,,2.01,1.78,0.92,1*06
$GNGSA,A,3,85,75,76,,,,,,,,,,2.01,1.78,0.92,2*0A
$GPGSV,3,1,12,26,66,270,24,18,56,169,17,29,49,077,09,31,41,238,,0*60
$GPGSV,3,2,12,16,35,297,,05,27,064,,28,24,208,,21,16,035,,0*6C
$GPGSV,3,3,12,25,15,133,,09,07,332,18,04,07,303,,27,05,260,16,0*61
$GLGSV,3,1,10,76,66,302,29,85,66,049,26,75,49,158,19,86,45,216,,1*75
$GLGSV,3,2,10,77,18,321,,84,17,043,,68,16,005,,69,08,052,,1*70
$GLGSV,3,3,10,67,06,319,,87,06,220,,1*7C
$GNGLL,5429.4077,N,00943.9120,E,123136.000,A,A*49
$GPTXT,01,01,02,ANTSTATUS=OPEN*2B
$GNGSA,A,3,27,26,,,,,,,,,,,2.01,1.78,0.92,1*06
$GNGSA,A,3,85,75,76,,,,,,,,,,2.01,1.78,0.92,2*0A
$GPGSV,3,1,12,26,66,270,24,18,56,169,17,29,49,077,09,31,41,238,,0*60
$GPGSV,3,2,12,16,35,297,,05,27,064,,28,24,208,,21,16,035,,0*6C
$GPGSV,3,3,12,25,15,133,,09,07,332,18,04,07,303,,27,05,260,16,0*61
$GLGSV,3,1,10,76,66,302,29,85,66,049,26,75,49,158,19,86,45,216,,1*75
$GLGSV,3,2,10,77,18,321,,84,17,043,,68,16,005,,69,08,052,,1*70
$GLGSV,3,3,10,67,06,319,,87,06,220,,1*7C
$GNGLL,5429.4077,N,00943.9120,E,123136.000,A,A*49
$GPTXT,01,01,02,ANTSTATUS=OPEN*2B
$GNGSA,A,3,85,75,76,,,,,,,,,,2.01,1.78,0.92,2*0A
$GPGSV,3,1,12,26,66,270,24,18,56,169,17,29,49,077,09,31,41,238,,0*60
$GPGSV,3,2,12,16,35,297,,05,27,064,,28,24,208,,21,16,035,,0*6C
$GPGSV,3,3,12,25,15,133,,09,07,332,18,04,07,303,,27,05,260,16,0*61
$GLGSV,3,1,10,76,66,302,29,85,66,049,26,75,49,158,19,86,45,216,,1*75
$GLGSV,3,2,10,77,18,321,,84,17,043,,68,16,005,,69,08,052,,1*70
$GLGSV,3,3,10,67,06,319,,87,06,220,,1*7C
$GNGLL,5429.4077,N,00943.9120,E,123136.000,A,A*49
$GPTXT,01,01,02,ANTSTATUS=OPEN*2B
$GPGSV,3,1,12,26,66,270,24,18,56,169,17,29,49,077,09,31,41,238,,0*60
$GPGSV,3,2,12,16,35,297,,05,27,064,,28,24,208,,21,16,035,,0*6C
$GPGSV,3,3,12,25,15,133,,09,07,332,18,04,07,303,,27,05,260,16,0*61
$GLGSV,3,1,10,76,66,302,29,85,66,049,26,75,49,158,19,86,45,216,,1*75
$GLGSV,3,2,10,77,18,321,,84,17,043,,68,16,005,,69,08,052,,1*70
$GLGSV,3,3,10,67,06,319,,87,06,220,,1*7C
$GNGLL,5429.4077,N,00943.9120,E,123136.000,A,A*49
$GPTXT,01,01,02,ANTSTATUS=OPEN*2B
$GPGSV,3,2,12,16,35,297,,05,27,064,,28,24,208,,21,16,035,,0*6C
$GPGSV,3,3,12,25,15,133,,09,07,332,18,04,07,303,,27,05,260,16,0*61
$GLGSV,3,1,10,76,66,302,29,85,66,049,26,75,49,158,19,86,45,216,,1*75
$GLGSV,3,2,10,77,18,321,,84,17,043,,68,16,005,,69,08,052,,1*70
$GLGSV,3,3,10,67,06,319,,87,06,220,,1*7C
$GNGLL,5429.4077,N,00943.9120,E,123136.000,A,A*49
$GPTXT,01,01,02,ANTSTATUS=OPEN*2B
$GPGSV,3,3,12,25,15,133,,09,07,332,18,04,07,303,,27,05,260,16,0*61
$GLGSV,3,1,10,76,66,302,29,85,66,049,26,75,49,158,19,86,45,216,,1*75
$GLGSV,3,2,10,77,18,321,,84,17,043,,68,16,005,,69,08,052,,1*70
$GLGSV,3,3,10,67,06,319,,87,06,220,,1*7C
$GNGLL,5429.4077,N,00943.9120,E,123136.000,A,A*49
$GPTXT,01,01,02,ANTSTATUS=OPEN*2B
$GLGSV,3,1,10,76,66,302,29,85,66,049,26,75,49,158,19,86,45,216,,1*75
$GLGSV,3,2,10,77,18,321,,84,17,043,,68,16,005,,69,08,052,,1*70
$GLGSV,3,3,10,67,06,319,,87,06,220,,1*7C
$GNGLL,5429.4077,N,00943.9120,E,123136.000,A,A*49
$GPTXT,01,01,02,ANTSTATUS=OPEN*2B
$GLGSV,3,2,10,77,18,321,,84,17,043,,68,16,005,,69,08,052,,1*70
$GLGSV,3,3,10,67,06,319,,87,06,220,,1*7C
$GNGLL,5429.4077,N,00943.9120,E,123136.000,A,A*49
$GPTXT,01,01,02,ANTSTATUS=OPEN*2B
$GLGSV,3,3,10,67,06,319,,87,06,220,,1*7C
$GNGLL,5429.4077,N,00943.9120,E,123136.000,A,A*49
$GPTXT,01,01,02,ANTSTATUS=OPEN*2B
$GNGLL,5429.4077,N,00943.9120,E,123136.000,A,A*49
$GPTXT,01,01,02,ANTSTATUS=OPEN*2B
$GPTXT,01,01,02,ANTSTATUS=OPEN*2B
$GNRMC,123137.000,A,5429.4110,N,00943.9134,E,1.06,53.29,240226,,,A,V*3A
$GPVTG,53.29,T,,M,1.06,N,1.96,K,A*09
$GPGGA,123137.000,5429.4110,N,00943.9134,E,1,5,1.78,-29.6,M,45.0,M,,*4C
$GNGSA,A,3,27,26,,,,,,,,,,,2.01,1.78,0.92,1*06
$GNGSA,A,3,85,75,76,,,,,,,,,,2.01,1.78,0.92,2*0A
$GPGSV,3,1,12,26,66,270,24,18,56,169,17,29,49,077,,31,41,238,,0*69
$GPGSV,3,2,12,16,35,297,,05,27,064,,28,24,208,,21,16,035,,0*6C
$GPGSV,3,3,12,25,15,133,,09,07,332,18,04,07,303,,27,05,260,15,0*62
$GLGSV,3,1,10,76,66,302,29,85,66,049,26,75,49,158,19,86,45,216,,1*75
$GLGSV,3,2,10,77,18,321,,84,17,043,,68,16,005,,69,08,052,,1*70
$GLGSV,3,3,10,67,06,319,,87,06,220,,1*7C
$GNGLL,5429.4110,N,00943.9134,E,123137.000,A,A*4D
$GPTXT,01,01,02,ANTSTATUS=OPEN*2B
$GPVTG,53.29,T,,M,1.06,N,1.96,K,A*09
$GPGGA,123137.000,5429.4110,N,00943.9134,E,1,5,1.78,-29.6,M,45.0,M,,*4C
$GNGSA,A,3,27,26,,,,,,,,,,,2.01,1.78,0.92,1*06
$GNGSA,A,3,85,75,76,,,,,,,,,,2.01,1.78,0.92,2*0A
$GPGSV,3,1,12,26,66,270,24,18,56,169,17,29,49,077,,31,41,238,,0*69
$GPGSV,3,2,12,16,35,297,,05,27,064,,28,24,208,,21,16,035,,0*6C
$GPGSV,3,3,12,25,15,133,,09,07,332,18,04,07,303,,27,05,260,15,0*62
$GLGSV,3,1,10,76,66,302,29,85,66,049,26,75,49,158,19,86,45,216,,1*75
$GLGSV,3,2,10,77,18,321,,84,17,043,,68,16,005,,69,08,052,,1*70
$GLGSV,3,3,10,67,06,319,,87,06,220,,1*7C
$GNGLL,5429.4110,N,00943.9134,E,123137.000,A,A*4D
$GPTXT,01,01,02,ANTSTATUS=OPEN*2B
$GPGGA,123137.000,5429.4110,N,00943.9134,E,1,5,1.78,-29.6,M,45.0,M,,*4C
$GNGSA,A,3,27,26,,,,,,,,,,,2.01,1.78,0.92,1*06
$GNGSA,A,3,85,75,76,,,,,,,,,,2.01,1.78,0.92,2*0A
$GPGSV,3,1,12,26,66,270,24,18,56,169,17,29,49,077,,31,41,238,,0*69
$GPGSV,3,2,12,16,35,297,,05,27,064,,28,24,208,,21,16,035,,0*6C
$GPGSV,3,3,12,25,15,133,,09,07,332,18,04,07,303,,27,05,260,15,0*62
$GLGSV,3,1,10,76,66,302,29,85,66,049,26,75,49,158,19,86,45,216,,1*75
$GLGSV,3,2,10,77,18,321,,84,17,043,,68,16,005,,69,08,052,,1*70
$GLGSV,3,3,10,67,06,319,,87,06,220,,1*7C
$GNGLL,5429.4110,N,00943.9134,E,123137.000,A,A*4D
$GPTXT,01,01,02,ANTSTATUS=OPEN*2B
$GNGSA,A,3,27,26,,,,,,,,,,,2.01,1.78,0.92,1*06
$GNGSA,A,3,85,75,76,,,,,,,,,,2.01,1.78,0.92,2*0A
$GPGSV,3,1,12,26,66,270,24,18,56,169,17,29,49,077,,31,41,238,,0*69
$GPGSV,3,2,12,16,35,297,,05,27,064,,28,24,208,,21,16,035,,0*6C
$GPGSV,3,3,12,25,15,133,,09,07,332,18,04,07,303,,27,05,260,15,0*62
$GLGSV,3,1,10,76,66,302,29,85,66,049,26,75,49,158,19,86,45,216,,1*75
$GLGSV,3,2,10,77,18,321,,84,17,043,,68,16,005,,69,08,052,,1*70
$GLGSV,3,3,10,67,06,319,,87,06,220,,1*7C
$GNGLL,5429.4110,N,00943.9134,E,123137.000,A,A*4D
$GPTXT,01,01,02,ANTSTATUS=OPEN*2B
$GNGSA,A,3,85,75,76,,,,,,,,,,2.01,1.78,0.92,2*0A
$GPGSV,3,1,12,26,66,270,24,18,56,169,17,29,49,077,,31,41,238,,0*69
$GPGSV,3,2,12,16,35,297,,05,27,064,,28,24,208,,21,16,035,,0*6C
$GPGSV,3,3,12,25,15,133,,09,07,332,18,04,07,303,,27,05,260,15,0*62
$GLGSV,3,1,10,76,66,302,29,85,66,049,26,75,49,158,19,86,45,216,,1*75
$GLGSV,3,2,10,77,18,321,,84,17,043,,68,16,005,,69,08,052,,1*70
$GLGSV,3,3,10,67,06,319,,87,06,220,,1*7C
$GNGLL,5429.4110,N,00943.9134,E,123137.000,A,A*4D
$GPTXT,01,01,02,ANTSTATUS=OPEN*2B
$GPGSV,3,1,12,26,66,270,24,18,56,169,17,29,49,077,,31,41,238,,0*69
$GPGSV,3,2,12,16,35,297,,05,27,064,,28,24,208,,21,16,035,,0*6C
$GPGSV,3,3,12,25,15,133,,09,07,332,18,04,07,303,,27,05,260,15,0*62
$GLGSV,3,1,10,76,66,302,29,85,66,049,26,75,49,158,19,86,45,216,,1*75
$GLGSV,3,2,10,77,18,321,,84,17,043,,68,16,005,,69,08,052,,1*70
$GLGSV,3,3,10,67,06,319,,87,06,220,,1*7C
$GNGLL,5429.4110,N,00943.9134,E,123137.000,A,A*4D
$GPTXT,01,01,02,ANTSTATUS=OPEN*2B
$GPGSV,3,2,12,16,35,297,,05,27,064,,28,24,208,,21,16,035,,0*6C
$GPGSV,3,3,12,25,15,133,,09,07,332,18,04,07,303,,27,05,260,15,0*62
$GLGSV,3,1,10,76,66,302,29,85,66,049,26,75,49,158,19,86,45,216,,1*75
$GLGSV,3,2,10,77,18,321,,84,17,043,,68,16,005,,69,08,052,,1*70
$GLGSV,3,3,10,67,06,319,,87,06,220,,1*7C
$GNGLL,5429.4110,N,00943.9134,E,123137.000,A,A*4D
$GPTXT,01,01,02,ANTSTATUS=OPEN*2B
$GPGSV,3,3,12,25,15,133,,09,07,332,18,04,07,303,,27,05,260,15,0*62
$GLGSV,3,1,10,76,66,302,29,85,66,049,26,75,49,158,19,86,45,216,,1*75
$GLGSV,3,2,10,77,18,321,,84,17,043,,68,16,005,,69,08,052,,1*70
$GLGSV,3,3,10,67,06,319,,87,06,220,,1*7C
$GNGLL,5429.4110,N,00943.9134,E,123137.000,A,A*4D
$GPTXT,01,01,02,ANTSTATUS=OPEN*2B
$GLGSV,3,1,10,76,66,302,29,85,66,049,26,75,49,158,19,86,45,216,,1*75
$GLGSV,3,2,10,77,18,321,,84,17,043,,68,16,005,,69,08,052,,1*70
$GLGSV,3,3,10,67,06,319,,87,06,220,,1*7C
$GNGLL,5429.4110,N,00943.9134,E,123137.000,A,A*4D
$GPTXT,01,01,02,ANTSTATUS=OPEN*2B
$GLGSV,3,2,10,77,18,321,,84,17,043,,68,16,005,,69,08,052,,1*70
$GLGSV,3,3,10,67,06,319,,87,06,220,,1*7C
$GNGLL,5429.4110,N,00943.9134,E,123137.000,A,A*4D
$GPTXT,01,01,02,ANTSTATUS=OPEN*2B
$GLGSV,3,3,10,67,06,319,,87,06,220,,1*7C
$GNGLL,5429.4110,N,00943.9134,E,123137.000,A,A*4D
$GPTXT,01,01,02,ANTSTATUS=OPEN*2B
$GNGLL,5429.4110,N,00943.9134,E,123137.000,A,A*4D
$GPTXT,01,01,02,ANTSTATUS=OPEN*2B
$GPTXT,01,01,02,ANTSTATUS=OPEN*2B
$GNRMC,123138.000,A,5429.4109,N,00943.9128,E,0.00,53.29,240226,,,A,V*37
$GPVTG,53.29,T,,M,0.00,N,0.00,K,A*00
$GPGGA,123138.000,5429.4109,N,00943.9128,E,1,5,1.78,-29.7,M,45.0,M,,*47
$GNGSA,A,3,27,26,,,,,,,,,,,2.01,1.78,0.92,1*06
$GNGSA,A,3,85,75,76,,,,,,,,,,2.01,1.78,0.92,2*0A
$GPGSV,3,1,12,26,66,270,24,18,56,169,17,29,49,077,,31,41,238,,0*69
$GPGSV,3,2,12,16,35,297,,05,27,064,,28,24,208,,21,16,035,,0*6C
$GPGSV,3,3,12,25,15,133,,09,07,332,18,04,07,303,,27,05,260,14,0*63
$GLGSV,3,1,10,76,66,302,29,85,66,049,26,75,49,158,20,86,45,216,,1*7F
$GLGSV,3,2,10,77,18,321,,84,17,043,,68,16,005,,69,08,052,,1*70
$GLGSV,3,3,10,67,06,319,,87,06,220,,1*7C
$GNGLL,5429.4109,N,00943.9128,E,123138.000,A,A*47
$GPTXT,01,01,02,ANTSTATUS=OPEN*2B
$GPVTG,53.29,T,,M,0.00,N,0.00,K,A*00
$GPGGA,123138.000,5429.4109,N,00943.9128,E,1,5,1.78,-29.7,M,45.0,M,,*47
$GNGSA,A,3,27,26,,,,,,,,,,,2.01,1.78,0.92,1*06
$GNGSA,A,3,85,75,76,,,,,,,,,,2.01,1.78,0.92,2*0A
$GPGSV,3,1,12,26,66,270,24,18,56,169,17,29,49,077,,31,41,238,,0*69
$GPGSV,3,2,12,16,35,297,,05,27,064,,28,24,208,,21,16,035,,0*6C
$GPGSV,3,3,12,25,15,133,,09,07,332,18,04,07,303,,27,05,260,14,0*63
$GLGSV,3,1,10,76,66,302,29,85,66,049,26,75,49,158,20,86,45,216,,1*7F
$GLGSV,3,2,10,77,18,321,,84,17,043,,68,16,005,,69,08,052,,1*70
$GLGSV,3,3,10,67,06,319,,87,06,220,,1*7C
$GNGLL,5429.4109,N,00943.9128,E,123138.000,A,A*47
$GPTXT,01,01,02,ANTSTATUS=OPEN*2B
$GPGGA,123138.000,5429.4109,N,00943.9128,E,1,5,1.78,-29.7,M,45.0,M,,*47
$GNGSA,A,3,27,26,,,,,,,,,,,2.01,1.78,0.92,1*06
$GNGSA,A,3,85,75,76,,,,,,,,,,2.01,1.78,0.92,2*0A
$GPGSV,3,1,12,26,66,270,24,18,56,169,17,29,49,077,,31,41,238,,0*69
$GPGSV,3,2,12,16,35,297,,05,27,064,,28,24,208,,21,16,035,,0*6C
$GPGSV,3,3,12,25,15,133,,09,07,332,18,04,07,303,,27,05,260,14,0*63
$GLGSV,3,1,10,76,66,302,29,85,66,049,26,75,49,158,20,86,45,216,,1*7F
$GLGSV,3,2,10,77,18,321,,84,17,043,,68,16,005,,69,08,052,,1*70
$GLGSV,3,3,10,67,06,319,,87,06,220,,1*7C
$GNGLL,5429.4109,N,00943.9128,E,123138.000,A,A*47
$GPTXT,01,01,02,ANTSTATUS=OPEN*2B
$GNGSA,A,3,27,26,,,,,,,,,,,2.01,1.78,0.92,1*06
$GNGSA,A,3,85,75,76,,,,,,,,,,2.01,1.78,0.92,2*0A
$GPGSV,3,1,12,26,66,270,24,18,56,169,17,29,49,077,,31,41,238,,0*69
$GPGSV,3,2,12,16,35,297,,05,27,064,,28,24,208,,21,16,035,,0*6C
$GPGSV,3,3,12,25,15,133,,09,07,332,18,04,07,303,,27,05,260,14,0*63
$GLGSV,3,1,10,76,66,302,29,85,66,049,26,75,49,158,20,86,45,216,,1*7F
$GLGSV,3,2,10,77,18,321,,84,17,043,,68,16,005,,69,08,052,,1*70
$GLGSV,3,3,10,67,06,319,,87,06,220,,1*7C
$GNGLL,5429.4109,N,00943.9128,E,123138.000,A,A*47
$GPTXT,01,01,02,ANTSTATUS=OPEN*2B
$GNGSA,A,3,85,75,76,,,,,,,,,,2.01,1.78,0.92,2*0A
$GPGSV,3,1,12,26,66,270,24,18,56,169,17,29,49,077,,31,41,238,,0*69
$GPGSV,3,2,12,16,35,297,,05,27,064,,28,24,208,,21,16,035,,0*6C
$GPGSV,3,3,12,25,15,133,,09,07,332,18,04,07,303,,27,05,260,14,0*63
$GLGSV,3,1,10,76,66,302,29,85,66,049,26,75,49,158,20,86,45,216,,1*7F
$GLGSV,3,2,10,77,18,321,,84,17,043,,68,16,005,,69,08,052,,1*70
$GLGSV,3,3,10,67,06,319,,87,06,220,,1*7C
$GNGLL,5429.4109,N,00943.9128,E,123138.000,A,A*47
$GPTXT,01,01,02,ANTSTATUS=OPEN*2B
$GPGSV,3,1,12,26,66,270,24,18,56,169,17,29,49,077,,31,41,238,,0*69
$GPGSV,3,2,12,16,35,297,,05,27,064,,28,24,208,,21,16,035,,0*6C
$GPGSV,3,3,12,25,15,133,,09,07,332,18,04,07,303,,27,05,260,14,0*63
$GLGSV,3,1,10,76,66,302,29,85,66,049,26,75,49,158,20,86,45,216,,1*7F
$GLGSV,3,2,10,77,18,321,,84,17,043,,68,16,005,,69,08,052,,1*70
$GLGSV,3,3,10,67,06,319,,87,06,220,,1*7C
$GNGLL,5429.4109,N,00943.9128,E,123138.000,A,A*47
$GPTXT,01,01,02,ANTSTATUS=OPEN*2B
$GPGSV,3,2,12,16,35,297,,05,27,064,,28,24,208,,21,16,035,,0*6C
$GPGSV,3,3,12,25,15,133,,09,07,332,18,04,07,303,,27,05,260,14,0*63
$GLGSV,3,1,10,76,66,302,29,85,66,049,26,75,49,158,20,86,45,216,,1*7F
$GLGSV,3,2,10,77,18,321,,84,17,043,,68,16,005,,69,08,052,,1*70
$GLGSV,3,3,10,67,06,319,,87,06,220,,1*7C
$GNGLL,5429.4109,N,00943.9128,E,123138.000,A,A*47
$GPTXT,01,01,02,ANTSTATUS=OPEN*2B
$GPGSV,3,3,12,25,15,133,,09,07,332,18,04,07,303,,27,05,260,14,0*63
$GLGSV,3,1,10,76,66,302,29,85,66,049,26,75,49,158,20,86,45,216,,1*7F
$GLGSV,3,2,10,77,18,321,,84,17,043,,68,16,005,,69,08,052,,1*70
$GLGSV,3,3,10,67,06,319,,87,06,220,,1*7C
$GNGLL,5429.4109,N,00943.9128,E,123138.000,A,A*47
$GPTXT,01,01,02,ANTSTATUS=OPEN*2B
$GLGSV,3,1,10,76,66,302,29,85,66,049,26,75,49,158,20,86,45,216,,1*7F
$GLGSV,3,2,10,77,18,321,,84,17,043,,68,16,005,,69,08,052,,1*70
$GLGSV,3,3,10,67,06,319,,87,06,220,,1*7C
$GNGLL,5429.4109,N,00943.9128,E,123138.000,A,A*47
$GPTXT,01,01,02,ANTSTATUS=OPEN*2B
$GLGSV,3,2,10,77,18,321,,84,17,043,,68,16,005,,69,08,052,,1*70
$GLGSV,3,3,10,67,06,319,,87,06,220,,1*7C
$GNGLL,5429.4109,N,00943.9128,E,123138.000,A,A*47
$GPTXT,01,01,02,ANTSTATUS=OPEN*2B
$GLGSV,3,3,10,67,06,319,,87,06,220,,1*7C
$GNGLL,5429.4109,N,00943.9128,E,123138.000,A,A*47
$GPTXT,01,01,02,ANTSTATUS=OPEN*2B
$GNGLL,5429.4109,N,00943.9128,E,123138.000,A,A*47
$GPTXT,01,01,02,ANTSTATUS=OPEN*2B
$GPTXT,01,01,02,ANTSTATUS=OPEN*2B
$GNRMC,123139.000,A,5429.4112,N,00943.9126,E,0.00,53.29,240226,,,A,V*32
$GPVTG,53.29,T,,M,0.00,N,0.00,K,A*00
$GPGGA,123139.000,5429.4112,N,00943.9126,E,1,5,1.78,-29.7,M,45.0,M,,*42
$GNGSA,A,3,27,26,,,,,,,,,,,2.01,1.78,0.92,1*06
$GNGSA,A,3,85,75,76,,,,,,,,,,2.01,1.78,0.92,2*0A
$GPGSV,3,1,12,26,66,270,24,18,56,169,17,29,49,077,,31,41,238,,0*69
$GPGSV,3,2,12,16,35,297,,05,27,064,,28,24,208,,21,16,035,,0*6C
$GPGSV,3,3,12,25,15,133,,09,07,332,18,04,07,303,,27,05,260,14,0*63
$GLGSV,3,1,10,76,66,302,29,85,66,049,26,75,49,158,20,86,45,216,,1*7F
$GLGSV,3,2,10,77,18,321,,84,17,043,,68,16,005,,69,08,052,,1*70
$GLGSV,3,3,10,67,06,319,,87,06,220,,1*7C
$GNGLL,5429.4112,N,00943.9126,E,123139.000,A,A*42
$GPTXT,01,01,02,ANTSTATUS=OPEN*2B
$GPVTG,53.29,T,,M,0.00,N,0.00,K,A*00
$GPGGA,123139.000,5429.4112,N,00943.9126,E,1,5,1.78,-29.7,M,45.0,M,,*42
$GNGSA,A,3,27,26,,,,,,,,,,,2.01,1.78,0.92,1*06
$GNGSA,A,3,85,75,76,,,,,,,,,,2.01,1.78,0.92,2*0A
$GPGSV,3,1,12,26,66,270,24,18,56,169,17,29,49,077,,31,41,238,,0*69
$GPGSV,3,2,12,16,35,297,,05,27,064,,28,24,208,,21,16,035,,0*6C
$GPGSV,3,3,12,25,15,133,,09,07,332,18,04,07,303,,27,05,260,14,0*63
$GLGSV,3,1,10,76,66,302,29,85,66,049,26,75,49,158,20,86,45,216,,1*7F
$GLGSV,3,2,10,77,18,321,,84,17,043,,68,16,005,,69,08,052,,1*70
$GLGSV,3,3,10,67,06,319,,87,06,220,,1*7C
$GNGLL,5429.4112,N,00943.9126,E,123139.000,A,A*42
$GPTXT,01,01,02,ANTSTATUS=OPEN*2B
$GPGGA,123139.000,5429.4112,N,00943.9126,E,1,5,1.78,-29.7,M,45.0,M,,*42
$GNGSA,A,3,27,26,,,,,,,,,,,2.01,1.78,0.92,1*06
$GNGSA,A,3,85,75,76,,,,,,,,,,2.01,1.78,0.92,2*0A
$GPGSV,3,1,12,26,66,270,24,18,56,169,17,29,49,077,,31,41,238,,0*69
$GPGSV,3,2,12,16,35,297,,05,27,064,,28,24,208,,21,16,035,,0*6C
$GPGSV,3,3,12,25,15,133,,09,07,332,18,04,07,303,,27,05,260,14,0*63
$GLGSV,3,1,10,76,66,302,29,85,66,049,26,75,49,158,20,86,45,216,,1*7F
$GLGSV,3,2,10,77,18,321,,84,17,043,,68,16,005,,69,08,052,,1*70
$GLGSV,3,3,10,67,06,319,,87,06,220,,1*7C
$GNGLL,5429.4112,N,00943.9126,E,123139.000,A,A*42
$GPTXT,01,01,02,ANTSTATUS=OPEN*2B
$GNGSA,A,3,27,26,,,,,,,,,,,2.01,1.78,0.92,1*06
$GNGSA,A,3,85,75,76,,,,,,,,,,2.01,1.78,0.92,2*0A
$GPGSV,3,1,12,26,66,270,24,18,56,169,17,29,49,077,,31,41,238,,0*69
$GPGSV,3,2,12,16,35,297,,05,27,064,,28,24,208,,21,16,035,,0*6C
$GPGSV,3,3,12,25,15,133,,09,07,332,18,04,07,303,,27,05,260,14,0*63
$GLGSV,3,1,10,76,66,302,29,85,66,049,26,75,49,158,20,86,45,216,,1*7F
$GLGSV,3,2,10,77,18,321,,84,17,043,,68,16,005,,69,08,052,,1*70
$GLGSV,3,3,10,67,06,319,,87,06,220,,1*7C
$GNGLL,5429.4112,N,00943.9126,E,123139.000,A,A*42
$GPTXT,01,01,02,ANTSTATUS=OPEN*2B
$GNGSA,A,3,85,75,76,,,,,,,,,,2.01,1.78,0.92,2*0A
$GPGSV,3,1,12,26,66,270,24,18,56,169,17,29,49,077,,31,41,238,,0*69
$GPGSV,3,2,12,16,35,297,,05,27,064,,28,24,208,,21,16,035,,0*6C
$GPGSV,3,3,12,25,15,133,,09,07,332,18,04,07,303,,27,05,260,14,0*63
$GLGSV,3,1,10,76,66,302,29,85,66,049,26,75,49,158,20,86,45,216,,1*7F
$GLGSV,3,2,10,77,18,321,,84,17,043,,68,16,005,,69,08,052,,1*70
$GLGSV,3,3,10,67,06,319,,87,06,220,,1*7C
$GNGLL,5429.4112,N,00943.9126,E,123139.000,A,A*42
$GPTXT,01,01,02,ANTSTATUS=OPEN*2B
$GPGSV,3,1,12,26,66,270,24,18,56,169,17,29,49,077,,31,41,238,,0*69
$GPGSV,3,2,12,16,35,297,,05,27,064,,28,24,208,,21,16,035,,0*6C
$GPGSV,3,3,12,25,15,133,,09,07,332,18,04,07,303,,27,05,260,14,0*63
$GLGSV,3,1,10,76,66,302,29,85,66,049,26,75,49,158,20,86,45,216,,1*7F
$GLGSV,3,2,10,77,18,321,,84,17,043,,68,16,005,,69,08,052,,1*70
$GLGSV,3,3,10,67,06,319,,87,06,220,,1*7C
$GNGLL,5429.4112,N,00943.9126,E,123139.000,A,A*42
$GPTXT,01,01,02,ANTSTATUS=OPEN*2B
$GPGSV,3,2,12,16,35,297,,05,27,064,,28,24,208,,21,16,035,,0*6C
$GPGSV,3,3,12,25,15,133,,09,07,332,18,04,07,303,,27,05,260,14,0*63
$GLGSV,3,1,10,76,66,302,29,85,66,049,26,75,49,158,20,86,45,216,,1*7F
$GLGSV,3,2,10,77,18,321,,84,17,043,,68,16,005,,69,08,052,,1*70
$GLGSV,3,3,10,67,06,319,,87,06,220,,1*7C
$GNGLL,5429.4112,N,00943.9126,E,123139.000,A,A*42
$GPTXT,01,01,02,ANTSTATUS=OPEN*2B
$GPGSV,3,3,12,25,15,133,,09,07,332,18,04,07,303,,27,05,260,14,0*63
$GLGSV,3,1,10,76,66,302,29,85,66,049,26,75,49,158,20,86,45,216,,1*7F
$GLGSV,3,2,10,77,18,321,,84,17,043,,68,16,005,,69,08,052,,1*70
$GLGSV,3,3,10,67,06,319,,87,06,220,,1*7C
$GNGLL,5429.4112,N,00943.9126,E,123139.000,A,A*42
$GPTXT,01,01,02,ANTSTATUS=OPEN*2B
$GLGSV,3,1,10,76,66,302,29,85,66,049,26,75,49,158,20,86,45,216,,1*7F
$GLGSV,3,2,10,77,18,321,,84,17,043,,68,16,005,,69,08,052,,1*70
$GLGSV,3,3,10,67,06,319,,87,06,220,,1*7C
$GNGLL,5429.4112,N,00943.9126,E,123139.000,A,A*42
$GPTXT,01,01,02,ANTSTATUS=OPEN*2B
$GLGSV,3,2,10,77,18,321,,84,17,043,,68,16,005,,69,08,052,,1*70
$GLGSV,3,3,10,67,06,319,,87,06,220,,1*7C
$GNGLL,5429.4112,N,00943.9126,E,123139.000,A,A*42
$GPTXT,01,01,02,ANTSTATUS=OPEN*2B
$GLGSV,3,3,10,67,06,319,,87,06,220,,1*7C
$GNGLL,5429.4112,N,00943.9126,E,123139.000,A,A*42
$GPTXT,01,01,02,ANTSTATUS=OPEN*2B
$GNGLL,5429.4112,N,00943.9126,E,123139.000,A,A*42
$GPTXT,01,01,02,ANTSTATUS=OPEN*2B
$GPTXT,01,01,02,ANTSTATUS=OPEN*2B
$GNRMC,123140.000,A,5429.4117,N,00943.9122,E,0.00,53.29,240226,,,A,V*3D
$GPVTG,53.29,T,,M,0.00,N,0.00,K,A*00
$GPGGA,123140.000,5429.4117,N,00943.9122,E,1,5,1.78,-29.7,M,45.0,M,,*4D
$GNGSA,A,3,27,26,,,,,,,,,,,2.01,1.78,0.92,1*06
$GNGSA,A,3,85,75,76,,,,,,,,,,2.01,1.78,0.92,2*0A
$GPGSV,3,1,12,26,66,270,24,18,56,169,17,29,49,077,,31,41,238,,0*69
$GPGSV,3,2,12,16,35,297,,05,27,064,,28,24,208,,21,16,035,,0*6C
$GPGSV,3,3,12,25,15,133,,09,07,332,17,04,07,303,,27,05,260,14,0*6C
$GLGSV,3,1,10,76,66,302,29,85,66,049,26,75,49,158,20,86,45,216,,1*7F
$GLGSV,3,2,10,77,18,321,,84,17,043,,68,16,005,,69,08,052,,1*70
$GLGSV,3,3,10,67,06,319,,87,06,220,,1*7C
$GNGLL,5429.4117,N,00943.9122,E,123140.000,A,A*4D
$GPTXT,01,01,02,ANTSTATUS=OPEN*2B
$GPVTG,53.29,T,,M,0.00,N,0.00,K,A*00
$GPGGA,123140.000,5429.4117,N,00943.9122,E,1,5,1.78,-29.7,M,45.0,M,,*4D
$GNGSA,A,3,27,26,,,,,,,,,,,2.01,1.78,0.92,1*06
$GNGSA,A,3,85,75,76,,,,,,,,,,2.01,1.78,0.92,2*0A
$GPGSV,3,1,12,26,66,270,24,18,56,169,17,29,49,077,,31,41,238,,0*69
$GPGSV,3,2,12,16,35,297,,05,27,064,,28,24,208,,21,16,035,,0*6C
$GPGSV,3,3,12,25,15,133,,09,07,332,17,04,07,303,,27,05,260,14,0*6C
$GLGSV,3,1,10,76,66,302,29,85,66,049,26,75,49,158,20,86,45,216,,1*7F
$GLGSV,3,2,10,77,18,321,,84,17,043,,68,16,005,,69,08,052,,1*70
$GLGSV,3,3,10,67,06,319,,87,06,220,,1*7C
$GNGLL,5429.4117,N,00943.9122,E,123140.000,A,A*4D
$GPTXT,01,01,02,ANTSTATUS=OPEN*2B
$GPGGA,123140.000,5429.4117,N,00943.9122,E,1,5,1.78,-29.7,M,45.0,M,,*4D
$GNGSA,A,3,27,26,,,,,,,,,,,2.01,1.78,0.92,1*06
$GNGSA,A,3,85,75,76,,,,,,,,,,2.01,1.78,0.92,2*0A
$GPGSV,3,1,12,26,66,270,24,18,56,169,17,29,49,077,,31,41,238,,0*69
$GPGSV,3,2,12,16,35,297,,05,27,064,,28,24,208,,21,16,035,,0*6C
$GPGSV,3,3,12,25,15,133,,09,07,332,17,04,07,303,,27,05,260,14,0*6C
$GLGSV,3,1,10,76,66,302,29,85,66,049,26,75,49,158,20,86,45,216,,1*7F
$GLGSV,3,2,10,77,18,321,,84,17,043,,68,16,005,,69,08,052,,1*70
$GLGSV,3,3,10,67,06,319,,87,06,220,,1*7C
$GNGLL,5429.4117,N,00943.9122,E,123140.000,A,A*4D
$GPTXT,01,01,02,ANTSTATUS=OPEN*2B
$GNGSA,A,3,27,26,,,,,,,,,,,2.01,1.78,0.92,1*06
$GNGSA,A,3,85,75,76,,,,,,,,,,2.01,1.78,0.92,2*0A
$GPGSV,3,1,12,26,66,270,24,18,56,169,17,29,49,077,,31,41,238,,0*69
$GPGSV,3,2,12,16,35,297,,05,27,064,,28,24,208,,21,16,035,,0*6C
$GPGSV,3,3,12,25,15,133,,09,07,332,17,04,07,303,,27,05,260,14,0*6C
$GLGSV,3,1,10,76,66,302,29,85,66,049,26,75,49,158,20,86,45,216,,1*7F
$GLGSV,3,2,10,77,18,321,,84,17,043,,68,16,005,,69,08,052,,1*70
$GLGSV,3,3,10,67,06,319,,87,06,220,,1*7C
$GNGLL,5429.4117,N,00943.9122,E,123140.000,A,A*4D
$GPTXT,01,01,02,ANTSTATUS=OPEN*2B
$GNGSA,A,3,85,75,76,,,,,,,,,,2.01,1.78,0.92,2*0A
$GPGSV,3,1,12,26,66,270,24,18,56,169,17,29,49,077,,31,41,238,,0*69
$GPGSV,3,2,12,16,35,297,,05,27,064,,28,24,208,,21,16,035,,0*6C
$GPGSV,3,3,12,25,15,133,,09,07,332,17,04,07,303,,27,05,260,14,0*6C
$GLGSV,3,1,10,76,66,302,29,85,66,049,26,75,49,158,20,86,45,216,,1*7F
$GLGSV,3,2,10,77,18,321,,84,17,043,,68,16,005,,69,08,052,,1*70
$GLGSV,3,3,10,67,06,319,,87,06,220,,1*7C
$GNGLL,5429.4117,N,00943.9122,E,123140.000,A,A*4D
$GPTXT,01,01,02,ANTSTATUS=OPEN*2B
$GPGSV,3,1,12,26,66,270,24,18,56,169,17,29,49,077,,31,41,238,,0*69
$GPGSV,3,2,12,16,35,297,,05,27,064,,28,24,208,,21,16,035,,0*6C
$GPGSV,3,3,12,25,15,133,,09,07,332,17,04,07,303,,27,05,260,14,0*6C
$GLGSV,3,1,10,76,66,302,29,85,66,049,26,75,49,158,20,86,45,216,,1*7F
$GLGSV,3,2,10,77,18,321,,84,17,043,,68,16,005,,69,08,052,,1*70
$GLGSV,3,3,10,67,06,319,,87,06,220,,1*7C
$GNGLL,5429.4117,N,00943.9122,E,123140.000,A,A*4D
$GPTXT,01,01,02,ANTSTATUS=OPEN*2B
$GPGSV,3,2,12,16,35,297,,05,27,064,,28,24,208,,21,16,035,,0*6C
$GPGSV,3,3,12,25,15,133,,09,07,332,17,04,07,303,,27,05,260,14,0*6C
$GLGSV,3,1,10,76,66,302,29,85,66,049,26,75,49,158,20,86,45,216,,1*7F
$GLGSV,3,2,10,77,18,321,,84,17,043,,68,16,005,,69,08,052,,1*70
$GLGSV,3,3,10,67,06,319,,87,06,220,,1*7C
$GNGLL,5429.4117,N,00943.9122,E,123140.000,A,A*4D
$GPTXT,01,01,02,ANTSTATUS=OPEN*2B
$GPGSV,3,3,12,25,15,133,,09,07,332,17,04,07,303,,27,05,260,14,0*6C
$GLGSV,3,1,10,76,66,302,29,85,66,049,26,75,49,158,20,86,45,216,,1*7F
$GLGSV,3,2,10,77,18,321,,84,17,043,,68,16,005,,69,08,052,,1*70
$GLGSV,3,3,10,67,06,319,,87,06,220,,1*7C
$GNGLL,5429.4117,N,00943.9122,E,123140.000,A,A*4D
$GPTXT,01,01,02,ANTSTATUS=OPEN*2B
$GLGSV,3,1,10,76,66,302,29,85,66,049,26,75,49,158,20,86,45,216,,1*7F
$GLGSV,3,2,10,77,18,321,,84,17,043,,68,16,005,,69,08,052,,1*70
$GLGSV,3,3,10,67,06,319,,87,06,220,,1*7C
$GNGLL,5429.4117,N,00943.9122,E,123140.000,A,A*4D
$GPTXT,01,01,02,ANTSTATUS=OPEN*2B
$GLGSV,3,2,10,77,18,321,,84,17,043,,68,16,005,,69,08,052,,1*70
$GLGSV,3,3,10,67,06,319,,87,06,220,,1*7C
$GNGLL,5429.4117,N,00943.9122,E,123140.000,A,A*4D
$GPTXT,01,01,02,ANTSTATUS=OPEN*2B
$GLGSV,3,3,10,67,06,319,,87,06,220,,1*7C
$GNGLL,5429.4117,N,00943.9122,E,123140.000,A,A*4D
$GPTXT,01,01,02,ANTSTATUS=OPEN*2B
$GNGLL,5429.4117,N,00943.9122,E,123140.000,A,A*4D
$GPTXT,01,01,02,ANTSTATUS=OPEN*2B
$GPTXT,01,01,02,ANTSTATUS=OPEN*2B
$GNRMC,123141.000,A,5429.4117,N,00943.9122,E,0.00,53.29,240226,,,A,V*3C
$GPVTG,53.29,T,,M,0.00,N,0.00,K,A*00
$GPGGA,123141.000,5429.4117,N,00943.9122,E,1,5,1.78,-29.7,M,45.0,M,,*4C
$GNGSA,A,3,27,26,,,,,,,,,,,2.01,1.78,0.92,1*06
$GNGSA,A,3,85,75,76,,,,,,,,,,2.01,1.78,0.92,2*0A
$GPGSV,3,1,12,26,66,270,24,18,56,169,17,29,49,077,,31,41,238,,0*69
$GPGSV,3,2,12,16,35,297,,05,27,064,,28,24,208,,21,16,035,,0*6C
$GPGSV,3,3,12,25,15,133,,09,07,332,17,04,07,303,,27,05,260,14,0*6C
$GLGSV,3,1,10,76,66,302,29,85,66,049,26,75,49,158,20,86,45,216,,1*7F
$GLGSV,3,2,10,77,18,321,,84,17,043,,68,16,005,,69,08,052,,1*70
$GLGSV,3,3,10,67,06,319,,87,06,220,,1*7C
$GNGLL,5429.4117,N,00943.9122,E,123141.000,A,A*4C
$GPTXT,01,01,02,ANTSTATUS=OPEN*2B
$GPVTG,53.29,T,,M,0.00,N,0.00,K,A*00
$GPGGA,123141.000,5429.4117,N,00943.9122,E,1,5,1.78,-29.7,M,45.0,M,,*4C
$GNGSA,A,3,27,26,,,,,,,,,,,2.01,1.78,0.92,1*06
$GNGSA,A,3,85,75,76,,,,,,,,,,2.01,1.78,0.92,2*0A
$GPGSV,3,1,12,26,66,270,24,18,56,169,17,29,49,077,,31,41,238,,0*69
$GPGSV,3,2,12,16,35,297,,05,27,064,,28,24,208,,21,16,035,,0*6C
$GPGSV,3,3,12,25,15,133,,09,07,332,17,04,07,303,,27,05,260,14,0*6C
$GLGSV,3,1,10,76,66,302,29,85,66,049,26,75,49,158,20,86,45,216,,1*7F
$GLGSV,3,2,10,77,18,321,,84,17,043,,68,16,005,,69,08,052,,1*70
$GLGSV,3,3,10,67,06,319,,87,06,220,,1*7C
$GNGLL,5429.4117,N,00943.9122,E,123141.000,A,A*4C
$GPTXT,01,01,02,ANTSTATUS=OPEN*2B
$GPGGA,123141.000,5429.4117,N,00943.9122,E,1,5,1.78,-29.7,M,45.0,M,,*4C
$GNGSA,A,3,27,26,,,,,,,,,,,2.01,1.78,0.92,1*06
$GNGSA,A,3,85,75,76,,,,,,,,,,2.01,1.78,0.92,2*0A
$GPGSV,3,1,12,26,66,270,24,18,56,169,17,29,49,077,,31,41,238,,0*69
$GPGSV,3,2,12,16,35,297,,05,27,064,,28,24,208,,21,16,035,,0*6C
$GPGSV,3,3,12,25,15,133,,09,07,332,17,04,07,303,,27,05,260,14,0*6C
$GLGSV,3,1,10,76,66,302,29,85,66,049,26,75,49,158,20,86,45,216,,1*7F
$GLGSV,3,2,10,77,18,321,,84,17,043,,68,16,005,,69,08,052,,1*70
$GLGSV,3,3,10,67,06,319,,87,06,220,,1*7C
$GNGLL,5429.4117,N,00943.9122,E,123141.000,A,A*4C
$GPTXT,01,01,02,ANTSTATUS=OPEN*2B
$GNGSA,A,3,27,26,,,,,,,,,,,2.01,1.78,0.92,1*06
$GNGSA,A,3,85,75,76,,,,,,,,,,2.01,1.78,0.92,2*0A
$GPGSV,3,1,12,26,66,270,24,18,56,169,17,29,49,077,,31,41,238,,0*69
$GPGSV,3,2,12,16,35,297,,05,27,064,,28,24,208,,21,16,035,,0*6C
$GPGSV,3,3,12,25,15,133,,09,07,332,17,04,07,303,,27,05,260,14,0*6C
$GLGSV,3,1,10,76,66,302,29,85,66,049,26,75,49,158,20,86,45,216,,1*7F
$GLGSV,3,2,10,77,18,321,,84,17,043,,68,16,005,,69,08,052,,1*70
$GLGSV,3,3,10,67,06,319,,87,06,220,,1*7C
$GNGLL,5429.4117,N,00943.9122,E,123141.000,A,A*4C
$GPTXT,01,01,02,ANTSTATUS=OPEN*2B
$GNGSA,A,3,85,75,76,,,,,,,,,,2.01,1.78,0.92,2*0A
$GPGSV,3,1,12,26,66,270,24,18,56,169,17,29,49,077,,31,41,238,,0*69
$GPGSV,3,2,12,16,35,297,,05,27,064,,28,24,208,,21,16,035,,0*6C
$GPGSV,3,3,12,25,15,133,,09,07,332,17,04,07,303,,27,05,260,14,0*6C
$GLGSV,3,1,10,76,66,302,29,85,66,049,26,75,49,158,20,86,45,216,,1*7F
$GLGSV,3,2,10,77,18,321,,84,17,043,,68,16,005,,69,08,052,,1*70
$GLGSV,3,3,10,67,06,319,,87,06,220,,1*7C
$GNGLL,5429.4117,N,00943.9122,E,123141.000,A,A*4C
$GPTXT,01,01,02,ANTSTATUS=OPEN*2B
$GPGSV,3,1,12,26,66,270,24,18,56,169,17,29,49,077,,31,41,238,,0*69
$GPGSV,3,2,12,16,35,297,,05,27,064,,28,24,208,,21,16,035,,0*6C
$GPGSV,3,3,12,25,15,133,,09,07,332,17,04,07,303,,27,05,260,14,0*6C
$GLGSV,3,1,10,76,66,302,29,85,66,049,26,75,49,158,20,86,45,216,,1*7F
$GLGSV,3,2,10,77,18,321,,84,17,043,,68,16,005,,69,08,052,,1*70
$GLGSV,3,3,10,67,06,319,,87,06,220,,1*7C
$GNGLL,5429.4117,N,00943.9122,E,123141.000,A,A*4C
$GPTXT,01,01,02,ANTSTATUS=OPEN*2B
$GPGSV,3,2,12,16,35,297,,05,27,064,,28,24,208,,21,16,035,,0*6C
$GPGSV,3,3,12,25,15,133,,09,07,332,17,04,07,303,,27,05,260,14,0*6C
$GLGSV,3,1,10,76,66,302,29,85,66,049,26,75,49,158,20,86,45,216,,1*7F
$GLGSV,3,2,10,77,18,321,,84,17,043,,68,16,005,,69,08,052,,1*70
$GLGSV,3,3,10,67,06,319,,87,06,220,,1*7C
$GNGLL,5429.4117,N,00943.9122,E,123141.000,A,A*4C
$GPTXT,01,01,02,ANTSTATUS=OPEN*2B
$GPGSV,3,3,12,25,15,133,,09,07,332,17,04,07,303,,27,05,260,14,0*6C
$GLGSV,3,1,10,76,66,302,29,85,66,049,26,75,49,158,20,86,45,216,,1*7F
$GLGSV,3,2,10,77,18,321,,84,17,043,,68,16,005,,69,08,052,,1*70
$GLGSV,3,3,10,67,06,319,,87,06,220,,1*7C
$GNGLL,5429.4117,N,00943.9122,E,123141.000,A,A*4C
$GPTXT,01,01,02,ANTSTATUS=OPEN*2B
$GLGSV,3,1,10,76,66,302,29,85,66,049,26,75,49,158,20,86,45,216,,1*7F
$GLGSV,3,2,10,77,18,321,,84,17,043,,68,16,005,,69,08,052,,1*70
$GLGSV,3,3,10,67,06,319,,87,06,220,,1*7C
$GNGLL,5429.4117,N,00943.9122,E,123141.000,A,A*4C
$GPTXT,01,01,02,ANTSTATUS=OPEN*2B
$GLGSV,3,2,10,77,18,321,,84,17,043,,68,16,005,,69,08,052,,1*70
$GLGSV,3,3,10,67,06,319,,87,06,220,,1*7C
$GNGLL,5429.4117,N,00943.9122,E,123141.000,A,A*4C
$GPTXT,01,01,02,ANTSTATUS=OPEN*2B
$GLGSV,3,3,10,67,06,319,,87,06,220,,1*7C
$GNGLL,5429.4117,N,00943.9122,E,123141.000,A,A*4C
$GPTXT,01,01,02,ANTSTATUS=OPEN*2B
$GNGLL,5429.4117,N,00943.9122,E,123141.000,A,A*4C
$GPTXT,01,01,02,ANTSTATUS=OPEN*2B
$GPTXT,01,01,02,ANTSTATUS=OPEN*2B
$GNRMC,123142.000,A,5429.4117,N,00943.9122,E,0.00,53.29,240226,,,A,V*3F
$GPVTG,53.29,T,,M,0.00,N,0.00,K,A*00
$GPGGA,123142.000,5429.4117,N,00943.9122,E,1,5,1.78,-29.7,M,45.0,M,,*4F
$GNGSA,A,3,27,26,,,,,,,,,,,2.01,1.78,0.92,1*06
$GNGSA,A,3,85,75,76,,,,,,,,,,2.01,1.78,0.92,2*0A
$GPGSV,3,1,12,26,66,270,24,18,56,169,17,29,49,077,,31,41,238,,0*69
$GPGSV,3,2,12,16,35,297,,05,27,064,,28,24,208,,21,16,035,,0*6C
$GPGSV,3,3,12,25,15,133,,09,07,332,17,04,07,303,,27,05,260,14,0*6C
$GLGSV,3,1,10,76,66,302,29,85,66,049,26,75,49,158,20,86,45,216,,1*7F
$GLGSV,3,2,10,77,18,321,,84,17,043,,68,16,005,,69,08,052,,1*70
$GLGSV,3,3,10,67,06,319,,87,06,220,,1*7C
$GNGLL,5429.4117,N,00943.9122,E,123142.000,A,A*4F
$GPTXT,01,01,02,ANTSTATUS=OPEN*2B
$GPVTG,53.29,T,,M,0.00,N,0.00,K,A*00
$GPGGA,123142.000,5429.4117,N,00943.9122,E,1,5,1.78,-29.7,M,45.0,M,,*4F
$GNGSA,A,3,27,26,,,,,,,,,,,2.01,1.78,0.92,1*06
$GNGSA,A,3,85,75,76,,,,,,,,,,2.01,1.78,0.92,2*0A
$GPGSV,3,1,12,26,66,270,24,18,56,169,17,29,49,077,,31,41,238,,0*69
$GPGSV,3,2,12,16,35,297,,05,27,064,,28,24,208,,21,16,035,,0*6C
$GPGSV,3,3,12,25,15,133,,09,07,332,17,04,07,303,,27,05,260,14,0*6C
$GLGSV,3,1,10,76,66,302,29,85,66,049,26,75,49,158,20,86,45,216,,1*7F
$GLGSV,3,2,10,77,18,321,,84,17,043,,68,16,005,,69,08,052,,1*70
$GLGSV,3,3,10,67,06,319,,87,06,220,,1*7C
$GNGLL,5429.4117,N,00943.9122,E,123142.000,A,A*4F
$GPTXT,01,01,02,ANTSTATUS=OPEN*2B
$GPGGA,123142.000,5429.4117,N,00943.9122,E,1,5,1.78,-29.7,M,45.0,M,,*4F
$GNGSA,A,3,27,26,,,,,,,,,,,2.01,1.78,0.92,1*06
$GNGSA,A,3,85,75,76,,,,,,,,,,2.01,1.78,0.92,2*0A
$GPGSV,3,1,12,26,66,270,24,18,56,169,17,29,49,077,,31,41,238,,0*69
$GPGSV,3,2,12,16,35,297,,05,27,064,,28,24,208,,21,16,035,,0*6C
$GPGSV,3,3,12,25,15,133,,09,07,332,17,04,07,303,,27,05,260,14,0*6C
$GLGSV,3,1,10,76,66,302,29,85,66,049,26,75,49,158,20,86,45,216,,1*7F
$GLGSV,3,2,10,77,18,321,,84,17,043,,68,16,005,,69,08,052,,1*70
$GLGSV,3,3,10,67,06,319,,87,06,220,,1*7C
$GNGLL,5429.4117,N,00943.9122,E,123142.000,A,A*4F
$GPTXT,01,01,02,ANTSTATUS=OPEN*2B
$GNGSA,A,3,27,26,,,,,,,,,,,2.01,1.78,0.92,1*06
$GNGSA,A,3,85,75,76,,,,,,,,,,2.01,1.78,0.92,2*0A
$GPGSV,3,1,12,26,66,270,24,18,56,169,17,29,49,077,,31,41,238,,0*69
$GPGSV,3,2,12,16,35,297,,05,27,064,,28,24,208,,21,16,035,,0*6C
$GPGSV,3,3,12,25,15,133,,09,07,332,17,04,07,303,,27,05,260,14,0*6C
$GLGSV,3,1,10,76,66,302,29,85,66,049,26,75,49,158,20,86,45,216,,1*7F
$GLGSV,3,2,10,77,18,321,,84,17,043,,68,16,005,,69,08,052,,1*70
$GLGSV,3,3,10,67,06,319,,87,06,220,,1*7C
$GNGLL,5429.4117,N,00943.9122,E,123142.000,A,A*4F
$GPTXT,01,01,02,ANTSTATUS=OPEN*2B
$GNGSA,A,3,85,75,76,,,,,,,,,,2.01,1.78,0.92,2*0A
$GPGSV,3,1,12,26,66,270,24,18,56,169,17,29,49,077,,31,41,238,,0*69
$GPGSV,3,2,12,16,35,297,,05,27,064,,28,24,208,,21,16,035,,0*6C
$GPGSV,3,3,12,25,15,133,,09,07,332,17,04,07,303,,27,05,260,14,0*6C
$GLGSV,3,1,10,76,66,302,29,85,66,049,26,75,49,158,20,86,45,216,,1*7F
$GLGSV,3,2,10,77,18,321,,84,17,043,,68,16,005,,69,08,052,,1*70
$GLGSV,3,3,10,67,06,319,,87,06,220,,1*7C
$GNGLL,5429.4117,N,00943.9122,E,123142.000,A,A*4F
$GPTXT,01,01,02,ANTSTATUS=OPEN*2B
$GPGSV,3,1,12,26,66,270,24,18,56,169,17,29,49,077,,31,41,238,,0*69
$GPGSV,3,2,12,16,35,297,,05,27,064,,28,24,208,,21,16,035,,0*6C
$GPGSV,3,3,12,25,15,133,,09,07,332,17,04,07,303,,27,05,260,14,0*6C
$GLGSV,3,1,10,76,66,302,29,85,66,049,26,75,49,158,20,86,45,216,,1*7F
$GLGSV,3,2,10,77,18,321,,84,17,043,,68,16,005,,69,08,052,,1*70
$GLGSV,3,3,10,67,06,319,,87,06,220,,1*7C
$GNGLL,5429.4117,N,00943.9122,E,123142.000,A,A*4F
$GPTXT,01,01,02,ANTSTATUS=OPEN*2B
$GPGSV,3,2,12,16,35,297,,05,27,064,,28,24,208,,21,16,035,,0*6C
$GPGSV,3,3,12,25,15,133,,09,07,332,17,04,07,303,,27,05,260,14,0*6C
$GLGSV,3,1,10,76,66,302,29,85,66,049,26,75,49,158,20,86,45,216,,1*7F
$GLGSV,3,2,10,77,18,321,,84,17,043,,68,16,005,,69,08,052,,1*70
$GLGSV,3,3,10,67,06,319,,87,06,220,,1*7C
$GNGLL,5429.4117,N,00943.9122,E,123142.000,A,A*4F
$GPTXT,01,01,02,ANTSTATUS=OPEN*2B
$GPGSV,3,3,12,25,15,133,,09,07,332,17,04,07,303,,27,05,260,14,0*6C
$GLGSV,3,1,10,76,66,302,29,85,66,049,26,75,49,158,20,86,45,216,,1*7F
$GLGSV,3,2,10,77,18,321,,84,17,043,,68,16,005,,69,08,052,,1*70
$GLGSV,3,3,10,67,06,319,,87,06,220,,1*7C
$GNGLL,5429.4117,N,00943.9122,E,123142.000,A,A*4F
$GPTXT,01,01,02,ANTSTATUS=OPEN*2B
$GLGSV,3,1,10,76,66,302,29,85,66,049,26,75,49,158,20,86,45,216,,1*7F
$GLGSV,3,2,10,77,18,321,,84,17,043,,68,16,005,,69,08,052,,1*70
$GLGSV,3,3,10,67,06,319,,87,06,220,,1*7C
$GNGLL,5429.4117,N,00943.9122,E,123142.000,A,A*4F
$GPTXT,01,01,02,ANTSTATUS=OPEN*2B
$GLGSV,3,2,10,77,18,321,,84,17,043,,68,16,005,,69,08,052,,1*70
$GLGSV,3,3,10,67,06,319,,87,06,220,,1*7C
$GNGLL,5429.4117,N,00943.9122,E,123142.000,A,A*4F
$GPTXT,01,01,02,ANTSTATUS=OPEN*2B
$GLGSV,3,3,10,67,06,319,,87,06,220,,1*7C
$GNGLL,5429.4117,N,00943.9122,E,123142.000,A,A*4F
$GPTXT,01,01,02,ANTSTATUS=OPEN*2B
$GNGLL,5429.4117,N,00943.9122,E,123142.000,A,A*4F
$GPTXT,01,01,02,ANTSTATUS=OPEN*2B
$GPTXT,01,01,02,ANTSTATUS=OPEN*2B
$GNRMC,123143.000,A,5429.4117,N,00943.9122,E,0.00,53.29,240226,,,A,V*3E
$GPVTG,53.29,T,,M,0.00,N,0.00,K,A*00
$GPGGA,123143.000,5429.4117,N,00943.9122,E,1,5,1.78,-29.7,M,45.0,M,,*4E
$GNGSA,A,3,27,26,,,,,,,,,,,2.01,1.78,0.92,1*06
$GNGSA,A,3,85,75,76,,,,,,,,,,2.01,1.78,0.92,2*0A
$GPGSV,3,1,12,26,66,270,24,18,56,169,17,29,49,077,,31,41,238,,0*69
$GPGSV,3,2,12,16,35,297,,05,27,064,,28,24,208,,21,16,035,,0*6C
$GPGSV,3,3,12,25,15,133,,09,07,332,18,04,07,303,,27,05,260,14,0*63
$GLGSV,3,1,10,76,66,302,29,85,66,049,26,75,49,158,20,86,45,216,,1*7F
$GLGSV,3,2,10,77,18,321,,84,17,043,,68,16,005,,69,08,052,,1*70
$GLGSV,3,3,10,67,06,319,,87,06,220,,1*7C
$GNGLL,5429.4117,N,00943.9122,E,123143.000,A,A*4E
$GPTXT,01,01,02,ANTSTATUS=OPEN*2B
$GPVTG,53.29,T,,M,0.00,N,0.00,K,A*00
$GPGGA,123143.000,5429.4117,N,00943.9122,E,1,5,1.78,-29.7,M,45.0,M,,*4E
$GNGSA,A,3,27,26,,,,,,,,,,,2.01,1.78,0.92,1*06
$GNGSA,A,3,85,75,76,,,,,,,,,,2.01,1.78,0.92,2*0A
$GPGSV,3,1,12,26,66,270,24,18,56,169,17,29,49,077,,31,41,238,,0*69
$GPGSV,3,2,12,16,35,297,,05,27,064,,28,24,208,,21,16,035,,0*6C
$GPGSV,3,3,12,25,15,133,,09,07,332,18,04,07,303,,27,05,260,14,0*63
$GLGSV,3,1,10,76,66,302,29,85,66,049,26,75,49,158,20,86,45,216,,1*7F
$GLGSV,3,2,10,77,18,321,,84,17,043,,68,16,005,,69,08,052,,1*70
$GLGSV,3,3,10,67,06,319,,87,06,220,,1*7C
$GNGLL,5429.4117,N,00943.9122,E,123143.000,A,A*4E
$GPTXT,01,01,02,ANTSTATUS=OPEN*2B
$GPGGA,123143.000,5429.4117,N,00943.9122,E,1,5,1.78,-29.7,M,45.0,M,,*4E
$GNGSA,A,3,27,26,,,,,,,,,,,2.01,1.78,0.92,1*06
$GNGSA,A,3,85,75,76,,,,,,,,,,2.01,1.78,0.92,2*0A
$GPGSV,3,1,12,26,66,270,24,18,56,169,17,29,49,077,,31,41,238,,0*69
$GPGSV,3,2,12,16,35,297,,05,27,064,,28,24,208,,21,16,035,,0*6C
$GPGSV,3,3,12,25,15,133,,09,07,332,18,04,07,303,,27,05,260,14,0*63
$GLGSV,3,1,10,76,66,302,29,85,66,049,26,75,49,158,20,86,45,216,,1*7F
$GLGSV,3,2,10,77,18,321,,84,17,043,,68,16,005,,69,08,052,,1*70
$GLGSV,3,3,10,67,06,319,,87,06,220,,1*7C
$GNGLL,5429.4117,N,00943.9122,E,123143.000,A,A*4E
$GPTXT,01,01,02,ANTSTATUS=OPEN*2B
$GNGSA,A,3,27,26,,,,,,,,,,,2.01,1.78,0.92,1*06
$GNGSA,A,3,85,75,76,,,,,,,,,,2.01,1.78,0.92,2*0A
$GPGSV,3,1,12,26,66,270,24,18,56,169,17,29,49,077,,31,41,238,,0*69
$GPGSV,3,2,12,16,35,297,,05,27,064,,28,24,208,,21,16,035,,0*6C
$GPGSV,3,3,12,25,15,133,,09,07,332,18,04,07,303,,27,05,260,14,0*63
$GLGSV,3,1,10,76,66,302,29,85,66,049,26,75,49,158,20,86,45,216,,1*7F
$GLGSV,3,2,10,77,18,321,,84,17,043,,68,16,005,,69,08,052,,1*70
$GLGSV,3,3,10,67,06,319,,87,06,220,,1*7C
$GNGLL,5429.4117,N,00943.9122,E,123143.000,A,A*4E
$GPTXT,01,01,02,ANTSTATUS=OPEN*2B
$GNGSA,A,3,85,75,76,,,,,,,,,,2.01,1.78,0.92,2*0A
$GPGSV,3,1,12,26,66,270,24,18,56,169,17,29,49,077,,31,41,238,,0*69
$GPGSV,3,2,12,16,35,297,,05,27,064,,28,24,208,,21,16,035,,0*6C
$GPGSV,3,3,12,25,15,133,,09,07,332,18,04,07,303,,27,05,260,14,0*63
$GLGSV,3,1,10,76,66,302,29,85,66,049,26,75,49,158,20,86,45,216,,1*7F
$GLGSV,3,2,10,77,18,321,,84,17,043,,68,16,005,,69,08,052,,1*70
$GLGSV,3,3,10,67,06,319,,87,06,220,,1*7C
$GNGLL,5429.4117,N,00943.9122,E,123143.000,A,A*4E
$GPTXT,01,01,02,ANTSTATUS=OPEN*2B
$GPGSV,3,1,12,26,66,270,24,18,56,169,17,29,49,077,,31,41,238,,0*69
$GPGSV,3,2,12,16,35,297,,05,27,064,,28,24,208,,21,16,035,,0*6C
$GPGSV,3,3,12,25,15,133,,09,07,332,18,04,07,303,,27,05,260,14,0*63
$GLGSV,3,1,10,76,66,302,29,85,66,049,26,75,49,158,20,86,45,216,,1*7F
$GLGSV,3,2,10,77,18,321,,84,17,043,,68,16,005,,69,08,052,,1*70
$GLGSV,3,3,10,67,06,319,,87,06,220,,1*7C
$GNGLL,5429.4117,N,00943.9122,E,123143.000,A,A*4E
$GPTXT,01,01,02,ANTSTATUS=OPEN*2B
$GPGSV,3,2,12,16,35,297,,05,27,064,,28,24,208,,21,16,035,,0*6C
$GPGSV,3,3,12,25,15,133,,09,07,332,18,04,07,303,,27,05,260,14,0*63
$GLGSV,3,1,10,76,66,302,29,85,66,049,26,75,49,158,20,86,45,216,,1*7F
$GLGSV,3,2,10,77,18,321,,84,17,043,,68,16,005,,69,08,052,,1*70
$GLGSV,3,3,10,67,06,319,,87,06,220,,1*7C
$GNGLL,5429.4117,N,00943.9122,E,123143.000,A,A*4E
$GPTXT,01,01,02,ANTSTATUS=OPEN*2B
$GPGSV,3,3,12,25,15,133,,09,07,332,18,04,07,303,,27,05,260,14,0*63
$GLGSV,3,1,10,76,66,302,29,85,66,049,26,75,49,158,20,86,45,216,,1*7F
$GLGSV,3,2,10,77,18,321,,84,17,043,,68,16,005,,69,08,052,,1*70
$GLGSV,3,3,10,67,06,319,,87,06,220,,1*7C
$GNGLL,5429.4117,N,00943.9122,E,123143.000,A,A*4E
$GPTXT,01,01,02,ANTSTATUS=OPEN*2B
$GLGSV,3,1,10,76,66,302,29,85,66,049,26,75,49,158,20,86,45,216,,1*7F
$GLGSV,3,2,10,77,18,321,,84,17,043,,68,16,005,,69,08,052,,1*70
$GLGSV,3,3,10,67,06,319,,87,06,220,,1*7C
$GNGLL,5429.4117,N,00943.9122,E,123143.000,A,A*4E
$GPTXT,01,01,02,ANTSTATUS=OPEN*2B
$GLGSV,3,2,10,77,18,321,,84,17,043,,68,16,005,,69,08,052,,1*70
$GLGSV,3,3,10,67,06,319,,87,06,220,,1*7C
$GNGLL,5429.4117,N,00943.9122,E,123143.000,A,A*4E
$GPTXT,01,01,02,ANTSTATUS=OPEN*2B
$GLGSV,3,3,10,67,06,319,,87,06,220,,1*7C
$GNGLL,5429.4117,N,00943.9122,E,123143.000,A,A*4E
$GPTXT,01,01,02,ANTSTATUS=OPEN*2B
$GNGLL,5429.4117,N,00943.9122,E,123143.000,A,A*4E
$GPTXT,01,01,02,ANTSTATUS=OPEN*2B
$GPTXT,01,01,02,ANTSTATUS=OPEN*2B
$GNRMC,123144.000,A,5429.4117,N,00943.9122,E,0.00,53.29,240226,,,A,V*39
$GPVTG,53.29,T,,M,0.00,N,0.00,K,A*00
$GPGGA,123144.000,5429.4117,N,00943.9122,E,1,5,1.78,-29.7,M,45.0,M,,*49
$GNGSA,A,3,27,26,,,,,,,,,,,2.01,1.78,0.92,1*06
$GNGSA,A,3,85,75,76,,,,,,,,,,2.01,1.78,0.92,2*0A
$GPGSV,3,1,12,26,66,270,24,18,56,169,17,29,49,077,,31,41,238,,0*69
$GPGSV,3,2,12,16,35,297,,05,27,064,,28,24,208,,21,16,035,,0*6C
$GPGSV,3,3,12,25,15,133,,09,07,332,18,04,07,303,,27,05,260,14,0*63
$GLGSV,3,1,10,76,66,302,29,85,66,049,26,75,49,158,20,86,45,216,,1*7F
$GLGSV,3,2,10,77,18,321,,84,17,043,,68,16,005,,69,08,052,,1*70
$GLGSV,3,3,10,67,06,319,,87,06,220,,1*7C
$GNGLL,5429.4117,N,00943.9122,E,123144.000,A,A*49
$GPTXT,01,01,02,ANTSTATUS=OPEN*2B
$GPVTG,53.29,T,,M,0.00,N,0.00,K,A*00
$GPGGA,123144.000,5429.4117,N,00943.9122,E,1,5,1.78,-29.7,M,45.0,M,,*49
$GNGSA,A,3,27,26,,,,,,,,,,,2.01,1.78,0.92,1*06
