stack_usage: 56waiting for GNSS...
waiting for GNSS...
waiting for GNSS...
stack_usage: 408
$GNRMC,202123.000,A,5429.4079,N,00943.9136,E,0.87,49.42,130326,,,A,V
5515: 54294079,9439136
Delta latt/lon(min/100000): 0,0
54
r (m): 0.000000,lat(cm): 0, lon(cm): 0
stack_usage: 580
$GNRMC,202123.000,A,5429.4079,N,00943.9136,E,0.87,49.42,130326,,,A,V
5515: 54294079,9439136
Delta latt/lon(min/100000): 0,0
54
r (m): 0.000000,lat(cm): 0, lon(cm): 0
stack_usage: 580
$GNRMC,202124.000,A,5429.4078,N,00943.9133,E,0.91,49.42,130326,,,A,V
5516: 54294078,9439133
Delta latt/lon(min/100000): -1,-3
54
r (m): 0.375270,lat(cm): -18, lon(cm): -32
stack_usage: 652
$GNRMC,202125.000,A,5429.4078,N,00943.9133,E,0.95,49.42,130326,,,A,V
5517: 54294078,9439133
Delta latt/lon(min/100000): -1,-3
54
r (m): 0.375270,lat(cm): -18, lon(cm): -32
stack_usage: 652
$GNRMC,202126.000,A,5429.4076,N,00943.9133,E,0.00,49.42,130326,,,A,V
5518: 54294076,9439133
Delta latt/lon(min/100000): -3,-3
54
r (m): 0.644376,lat(cm): -55, lon(cm): -32
stack_usage: 652
$GNRMC,202127.000,A,5429.4075,N,00943.9131,E,0.81,49.42,130326,,,A,V
5519: 54294075,9439131
Delta latt/lon(min/100000): -4,-5
54
r (m): 0.919074,lat(cm): -74, lon(cm): -54
stack_usage: 652
$GNRMC,202128.000,A,5429.4077,N,00943.9133,E,0.00,49.42,130326,,,A,V
5520: 54294077,9439133
Delta latt/lon(min/100000): -2,-3
54
r (m): 0.493685,lat(cm): -37, lon(cm): -32
stack_usage: 652
$GNRMC,202129.000,A,5429.4077,N,00943.9133,E,0.00,49.42,130326,,,A,V
5521: 54294077,9439133
Delta latt/lon(min/100000): -2,-3
54
r (m): 0.493685,lat(cm): -37, lon(cm): -32
stack_usage: 652
$GNRMC,202130.000,A,5429.4077,N,00943.9133,E,1.11,49.42,130326,,,A,V
5522: 54294077,9439133
Delta latt/lon(min/100000): -2,-3
54
r (m): 0.493685,lat(cm): -37, lon(cm): -32
stack_usage: 652
$GNRMC,202131.000,A,5429.4077,N,00943.9133,E,0.00,49.42,130326,,,A,V
5523: 54294077,9439133
Delta latt/lon(min/100000): -2,-3
54
r (m): 0.493685,lat(cm): -37, lon(cm): -32
stack_usage: 652
$GNRMC,202132.000,A,5429.4077,N,00943.9133,E,0.00,49.42,130326,,,A,V
5524: 54294077,9439133
Delta latt/lon(min/100000): -2,-3
54
r (m): 0.493685,lat(cm): -37, lon(cm): -32
stack_usage: 652
$GNRMC,202133.000,A,5429.4077,N,00943.9133,E,0.00,49.42,130326,,,A,V
5525: 54294077,9439133
Delta latt/lon(min/100000): -2,-3
54
r (m): 0.493685,lat(cm): -37, lon(cm): -32
stack_usage: 652
$GNRMC,202134.000,A,5429.4077,N,00943.9133,E,0.83,49.42,130326,,,A,V
5526: 54294077,9439133
Delta latt/lon(min/100000): -2,-3
54
r (m): 0.493685,lat(cm): -37, lon(cm): -32
stack_usage: 652
$GNRMC,202135.000,A,5429.4077,N,00943.9133,E,0.00,49.42,130326,,,A,V
5527: 54294077,9439133
Delta latt/lon(min/100000): -2,-3
54
r (m): 0.493685,lat(cm): -37, lon(cm): -32
stack_usage: 652
$GNRMC,202136.000,A,5429.4077,N,00943.9133,E,0.00,49.42,130326,,,A,V
5528: 54294077,9439133
Delta latt/lon(min/100000): -2,-3
54
r (m): 0.493685,lat(cm): -37, lon(cm): -32
stack_usage: 652
$GNRMC,202137.000,A,5429.4077,N,00943.9133,E,0.00,49.42,130326,,,A,V
5529: 54294077,9439133
Delta latt/lon(min/100000): -2,-3
54
r (m): 0.493685,lat(cm): -37, lon(cm): -32
stack_usage: 652
$GNRMC,202138.000,A,5429.4077,N,00943.9133,E,0.00,49.42,130326,,,A,V
5530: 54294077,9439133
Delta latt/lon(min/100000): -2,-3
54
r (m): 0.493685,lat(cm): -37, lon(cm): -32
stack_usage: 652
$GNRMC,202139.000,A,5429.4077,N,00943.9133,E,0.00,49.42,130326,,,A,V
5531: 54294077,9439133
Delta latt/lon(min/100000): -2,-3
54
r (m): 0.493685,lat(cm): -37, lon(cm): -32
stack_usage: 652
$GNRMC,202140.000,A,5429.4077,N,00943.9133,E,0.00,49.42,130326,,,A,V
5532: 54294077,9439133
Delta latt/lon(min/100000): -2,-3
54
r (m): 0.493685,lat(cm): -37, lon(cm): -32
stack_usage: 652
$GNRMC,202141.000,A,5429.4077,N,00943.9133,E,0.00,49.42,130326,,,A,V
5533: 54294077,9439133
Delta latt/lon(min/100000): -2,-3
54
r (m): 0.493685,lat(cm): -37, lon(cm): -32
stack_usage: 652
$GNRMC,202142.000,A,5429.4077,N,00943.9133,E,0.00,49.42,130326,,,A,V
5534: 54294077,9439133
Delta latt/lon(min/100000): -2,-3
54
r (m): 0.493685,lat(cm): -37, lon(cm): -32
stack_usage: 652
$GNRMC,202143.000,A,5429.4077,N,00943.9133,E,0.92,49.42,130326,,,A,V
5535: 54294077,9439133
Delta latt/lon(min/100000): -2,-3
54
r (m): 0.493685,lat(cm): -37, lon(cm): -32
stack_usage: 652
$GNRMC,202144.000,A,5429.4077,N,00943.9133,E,0.00,49.42,130326,,,A,V
5536: 54294077,9439133
Delta latt/lon(min/100000): -2,-3
54
r (m): 0.493685,lat(cm): -37, lon(cm): -32
stack_usage: 652
$GNRMC,202145.000,A,5429.4077,N,00943.9133,E,0.00,49.42,130326,,,A,V
5537: 54294077,9439133
Delta latt/lon(min/100000): -2,-3
54
r (m): 0.493685,lat(cm): -37, lon(cm): -32
stack_usage: 652
$GNRMC,202146.000,A,5429.4077,N,00943.9133,E,0.00,49.42,130326,,,A,V
5538: 54294077,9439133
Delta latt/lon(min/100000): -2,-3
54
r (m): 0.493685,lat(cm): -37, lon(cm): -32
stack_usage: 652
$GNRMC,202147.000,A,5429.4077,N,00943.9133,E,0.79,49.42,130326,,,A,V
5539: 54294077,9439133
Delta latt/lon(min/100000): -2,-3
54
r (m): 0.493685,lat(cm): -37, lon(cm): -32
stack_usage: 652
$GNRMC,202148.000,A,5429.4077,N,00943.9133,E,0.00,49.42,130326,,,A,V
5540: 54294077,9439133
Delta latt/lon(min/100000): -2,-3
54
r (m): 0.493685,lat(cm): -37, lon(cm): -32
stack_usage: 652
$GNRMC,202149.000,A,5429.4077,N,00943.9133,E,0.88,20.26,130326,,,A,V
5541: 54294077,9439133
Delta latt/lon(min/100000): -2,-3
54
r (m): 0.493685,lat(cm): -37, lon(cm): -32
stack_usage: 652
$GNRMC,202150.000,A,5429.4084,N,00943.9137,E,0.91,359.40,130326,,,A,V
5542: 54294084,9439137
Delta latt/lon(min/100000): 5,1
54
r (m): 0.932369,lat(cm): 92, lon(cm): 10
stack_usage: 652
$GNRMC,202151.000,A,5429.4083,N,00943.9138,E,0.00,359.40,130326,,,A,V
5543: 54294083,9439138
Delta latt/lon(min/100000): 4,2
54
r (m): 0.772095,lat(cm): 74, lon(cm): 21
stack_usage: 652
$GNRMC,202152.000,A,5429.4080,N,00943.9137,E,0.00,359.40,130326,,,A,V
5544: 54294080,9439137
Delta latt/lon(min/100000): 1,1
54
r (m): 0.214792,lat(cm): 18, lon(cm): 10
stack_usage: 652
$GNRMC,202153.000,A,5429.4079,N,00943.9138,E,0.00,359.40,130326,,,A,V
5545: 54294079,9439138
Delta latt/lon(min/100000): 0,2
54
r (m): 0.217592,lat(cm): 0, lon(cm): 21
stack_usage: 652
$GNRMC,202154.000,A,5429.4079,N,00943.9138,E,1.11,359.40,130326,,,A,V
5546: 54294079,9439138
Delta latt/lon(min/100000): 0,2
54
r (m): 0.217592,lat(cm): 0, lon(cm): 21
stack_usage: 652
$GNRMC,202155.000,A,5429.4079,N,00943.9138,E,0.00,359.40,130326,,,A,V
5547: 54294079,9439138
Delta latt/lon(min/100000): 0,2
54
r (m): 0.217592,lat(cm): 0, lon(cm): 21
stack_usage: 652
$GNRMC,202156.000,A,5429.4079,N,00943.9138,E,0.00,359.40,130326,,,A,V
5548: 54294079,9439138
Delta latt/lon(min/100000): 0,2
54
r (m): 0.217592,lat(cm): 0, lon(cm): 21
stack_usage: 652
$GNRMC,202157.000,A,5429.4079,N,00943.9138,E,0.00,359.40,130326,,,A,V
5549: 54294079,9439138
Delta latt/lon(min/100000): 0,2
54
r (m): 0.217592,lat(cm): 0, lon(cm): 21
stack_usage: 652
$GNRMC,202158.000,A,5429.4079,N,00943.9138,E,0.00,359.40,130326,,,A,V
5550: 54294079,9439138
Delta latt/lon(min/100000): 0,2
54
r (m): 0.217592,lat(cm): 0, lon(cm): 21
stack_usage: 652
$GNRMC,202159.000,A,5429.4079,N,00943.9138,E,0.00,359.40,130326,,,A,V
5551: 54294079,9439138
Delta latt/lon(min/100000): 0,2
54
r (m): 0.217592,lat(cm): 0, lon(cm): 21
stack_usage: 652
$GNRMC,202200.000,A,5429.4079,N,00943.9138,E,0.79,359.40,130326,,,A,V
5592: 54294079,9439138
Delta latt/lon(min/100000): 0,2
54
r (m): 0.217592,lat(cm): 0, lon(cm): 21
stack_usage: 652
$GNRMC,202201.000,A,5429.4079,N,00943.9138,E,0.00,359.40,130326,,,A,V
5593: 54294079,9439138
Delta latt/lon(min/100000): 0,2
54
r (m): 0.217592,lat(cm): 0, lon(cm): 21
stack_usage: 652
$GNRMC,202202.000,A,5429.4079,N,00943.9138,E,0.95,359.40,130326,,,A,V
5594: 54294079,9439138
Delta latt/lon(min/100000): 0,2
54
r (m): 0.217592,lat(cm): 0, lon(cm): 21
stack_usage: 652
$GNRMC,202203.000,A,5429.4079,N,00943.9138,E,0.00,359.40,130326,,,A,V
5595: 54294079,9439138
Delta latt/lon(min/100000): 0,2
54
r (m): 0.217592,lat(cm): 0, lon(cm): 21
stack_usage: 652
$GNRMC,202204.000,A,5429.4079,N,00943.9138,E,0.86,359.40,130326,,,A,V
5596: 54294079,9439138
Delta latt/lon(min/100000): 0,2
54
r (m): 0.217592,lat(cm): 0, lon(cm): 21
stack_usage: 652
$GNRMC,202205.000,A,5429.4079,N,00943.9138,E,0.00,359.40,130326,,,A,V
5597: 54294079,9439138
Delta latt/lon(min/100000): 0,2
54
r (m): 0.217592,lat(cm): 0, lon(cm): 21
stack_usage: 652
$GNRMC,202206.000,A,5429.4079,N,00943.9138,E,0.00,359.40,130326,,,A,V
5598: 54294079,9439138
Delta latt/lon(min/100000): 0,2
54
r (m): 0.217592,lat(cm): 0, lon(cm): 21
stack_usage: 652
$GNRMC,202207.000,A,5429.4079,N,00943.9138,E,0.00,359.40,130326,,,A,V
5599: 54294079,9439138
Delta latt/lon(min/100000): 0,2
54
r (m): 0.217592,lat(cm): 0, lon(cm): 21
stack_usage: 652
$GNRMC,202208.000,A,5429.4079,N,00943.9138,E,0.00,359.40,130326,,,A,V
5600: 54294079,9439138
Delta latt/lon(min/100000): 0,2
54
r (m): 0.217592,lat(cm): 0, lon(cm): 21
stack_usage: 652
$GNRMC,202209.000,A,5429.4079,N,00943.9138,E,0.00,359.40,130326,,,A,V
5601: 54294079,9439138
Delta latt/lon(min/100000): 0,2
54
r (m): 0.217592,lat(cm): 0, lon(cm): 21
stack_usage: 652
$GNRMC,202210.000,A,5429.4079,N,00943.9138,E,0.95,359.40,130326,,,A,V
5602: 54294079,9439138
Delta latt/lon(min/100000): 0,2
54
r (m): 0.217592,lat(cm): 0, lon(cm): 21
stack_usage: 652
$GNRMC,202211.000,A,5429.4083,N,00943.9158,E,0.78,359.40,130326,,,A,V
5603: 54294083,9439158
Delta latt/lon(min/100000): 4,22
54
r (m): 2.505527,lat(cm): 74, lon(cm): 238
stack_usage: 652
$GNRMC,202212.000,A,5429.4083,N,00943.9159,E,0.00,359.40,130326,,,A,V
5604: 54294083,9439159
Delta latt/lon(min/100000): 4,23
54
r (m): 2.609657,lat(cm): 74, lon(cm): 248
stack_usage: 652
$GNRMC,202213.000,A,5429.4081,N,00943.9157,E,0.00,359.40,130326,,,A,V
5605: 54294081,9439157
Delta latt/lon(min/100000): 2,21
54
r (m): 2.314542,lat(cm): 37, lon(cm): 227
stack_usage: 652
$GNRMC,202214.000,A,5429.4080,N,00943.9155,E,0.00,359.40,130326,,,A,V
5606: 54294080,9439155
Delta latt/lon(min/100000): 1,19
54
r (m): 2.075400,lat(cm): 18, lon(cm): 205
stack_usage: 652
$GNRMC,202215.000,A,5429.4080,N,00943.9155,E,0.00,359.40,130326,,,A,V
5607: 54294080,9439155
Delta latt/lon(min/100000): 1,19
54
r (m): 2.075400,lat(cm): 18, lon(cm): 205
stack_usage: 652
$GNRMC,202216.000,A,5429.4080,N,00943.9155,E,0.00,359.40,130326,,,A,V
5608: 54294080,9439155
Delta latt/lon(min/100000): 1,19
54
r (m): 2.075400,lat(cm): 18, lon(cm): 205
stack_usage: 652
$GNRMC,202217.000,A,5429.4080,N,00943.9155,E,0.00,359.40,130326,,,A,V
5609: 54294080,9439155
Delta latt/lon(min/100000): 1,19
54
r (m): 2.075400,lat(cm): 18, lon(cm): 205
stack_usage: 652
$GNRMC,202218.000,A,5429.4080,N,00943.9155,E,0.00,359.40,130326,,,A,V
5610: 54294080,9439155
Delta latt/lon(min/100000): 1,19
54
r (m): 2.075400,lat(cm): 18, lon(cm): 205
stack_usage: 652
$GNRMC,202219.000,A,5429.4080,N,00943.9155,E,0.00,359.40,130326,,,A,V
5611: 54294080,9439155
Delta latt/lon(min/100000): 1,19
54
r (m): 2.075400,lat(cm): 18, lon(cm): 205
stack_usage: 652
$GNRMC,202220.000,A,5429.4080,N,00943.9155,E,0.85,359.40,130326,,,A,V
5612: 54294080,9439155
Delta latt/lon(min/100000): 1,19
54
r (m): 2.075400,lat(cm): 18, lon(cm): 205
stack_usage: 652
$GNRMC,202221.000,A,5429.4080,N,00943.9155,E,0.00,359.40,130326,,,A,V
5613: 54294080,9439155
Delta latt/lon(min/100000): 1,19
54
r (m): 2.075400,lat(cm): 18, lon(cm): 205
stack_usage: 652
$GNRMC,202222.000,A,5429.4080,N,00943.9155,E,0.00,359.40,130326,,,A,V
5614: 54294080,9439155
Delta latt/lon(min/100000): 1,19
54
r (m): 2.075400,lat(cm): 18, lon(cm): 205
stack_usage: 652
$GNRMC,202223.000,A,5429.4080,N,00943.9155,E,0.00,359.40,130326,,,A,V
5615: 54294080,9439155
Delta latt/lon(min/100000): 1,19
54
r (m): 2.075400,lat(cm): 18, lon(cm): 205
stack_usage: 652
$GNRMC,202224.000,A,5429.4080,N,00943.9155,E,0.00,359.40,130326,,,A,V
5616: 54294080,9439155
Delta latt/lon(min/100000): 1,19
54
r (m): 2.075400,lat(cm): 18, lon(cm): 205
stack_usage: 652
$GNRMC,202225.000,A,5429.4080,N,00943.9155,E,0.00,359.40,130326,,,A,V
5617: 54294080,9439155
Delta latt/lon(min/100000): 1,19
54
r (m): 2.075400,lat(cm): 18, lon(cm): 205
stack_usage: 652
$GNRMC,202226.000,A,5429.4080,N,00943.9155,E,0.00,359.40,130326,,,A,V
5618: 54294080,9439155
Delta latt/lon(min/100000): 1,19
54
r (m): 2.075400,lat(cm): 18, lon(cm): 205
stack_usage: 652
$GNRMC,202227.000,A,5429.4080,N,00943.9155,E,0.85,359.40,130326,,,A,V
5619: 54294080,9439155
Delta latt/lon(min/100000): 1,19
54
r (m): 2.075400,lat(cm): 18, lon(cm): 205
stack_usage: 652
$GNRMC,202228.000,A,5429.4080,N,00943.9155,E,0.00,359.40,130326,,,A,V
5620: 54294080,9439155
Delta latt/lon(min/100000): 1,19
54
r (m): 2.075400,lat(cm): 18, lon(cm): 205
stack_usage: 652
$GNRMC,202229.000,A,5429.4080,N,00943.9155,E,1.30,359.40,130326,,,A,V
5621: 54294080,9439155
Delta latt/lon(min/100000): 1,19
54
r (m): 2.075400,lat(cm): 18, lon(cm): 205
stack_usage: 652
$GNRMC,202230.000,A,5429.4084,N,00943.9150,E,0.78,345.38,130326,,,A,V
5622: 54294084,9439150
Delta latt/lon(min/100000): 5,14
54
r (m): 1.782536,lat(cm): 92, lon(cm): 151
stack_usage: 652
$GNRMC,202231.000,A,5429.4087,N,00943.9149,E,0.79,359.32,130326,,,A,V
5623: 54294087,9439149
Delta latt/lon(min/100000): 8,13
54
r (m): 2.048295,lat(cm): 148, lon(cm): 140
stack_usage: 652
$GNRMC,202232.000,A,5429.4086,N,00943.9148,E,0.00,359.32,130326,,,A,V
5624: 54294086,9439148
Delta latt/lon(min/100000): 7,12
54
r (m): 1.839868,lat(cm): 129, lon(cm): 129
stack_usage: 652
$GNRMC,202233.000,A,5429.4089,N,00943.9145,E,0.91,359.37,130326,,,A,V
5625: 54294089,9439145
Delta latt/lon(min/100000): 10,9
54
r (m): 2.094913,lat(cm): 185, lon(cm): 97
stack_usage: 652
$GNRMC,202234.000,A,5429.4085,N,00943.9139,E,0.00,359.37,130326,,,A,V
5626: 54294085,9439139
Delta latt/lon(min/100000): 6,3
54
r (m): 1.158143,lat(cm): 111, lon(cm): 32
stack_usage: 652
$GNRMC,202235.000,A,5429.4085,N,00943.9139,E,0.00,359.37,130326,,,A,V
5627: 54294085,9439139
Delta latt/lon(min/100000): 6,3
54
r (m): 1.158143,lat(cm): 111, lon(cm): 32
stack_usage: 652
$GNRMC,202236.000,A,5429.4085,N,00943.9139,E,0.00,359.37,130326,,,A,V
5628: 54294085,9439139
Delta latt/lon(min/100000): 6,3
54
r (m): 1.158143,lat(cm): 111, lon(cm): 32
stack_usage: 652
$GNRMC,202237.000,A,5429.4085,N,00943.9139,E,0.86,359.37,130326,,,A,V
5629: 54294085,9439139
Delta latt/lon(min/100000): 6,3
54
r (m): 1.158143,lat(cm): 111, lon(cm): 32
stack_usage: 652
$GNRMC,202238.000,A,5429.4085,N,00943.9139,E,0.00,359.37,130326,,,A,V
5630: 54294085,9439139
Delta latt/lon(min/100000): 6,3
54
r (m): 1.158143,lat(cm): 111, lon(cm): 32
stack_usage: 652
$GNRMC,202239.000,A,5429.4085,N,00943.9139,E,1.18,359.37,130326,,,A,V
5631: 54294085,9439139
Delta latt/lon(min/100000): 6,3
54
r (m): 1.158143,lat(cm): 111, lon(cm): 32
stack_usage: 652
$GNRMC,202240.000,A,5429.4085,N,00943.9139,E,0.00,359.37,130326,,,A,V
5632: 54294085,9439139
Delta latt/lon(min/100000): 6,3
54
r (m): 1.158143,lat(cm): 111, lon(cm): 32
stack_usage: 652
$GNRMC,202241.000,A,5429.4085,N,00943.9139,E,0.00,359.37,130326,,,A,V
5633: 54294085,9439139
Delta latt/lon(min/100000): 6,3
54
r (m): 1.158143,lat(cm): 111, lon(cm): 32
stack_usage: 652
$GNRMC,202242.000,A,5429.4085,N,00943.9139,E,0.00,359.37,130326,,,A,V
5634: 54294085,9439139
Delta latt/lon(min/100000): 6,3
54
r (m): 1.158143,lat(cm): 111, lon(cm): 32
stack_usage: 652
$GNRMC,202243.000,A,5429.4085,N,00943.9139,E,0.00,359.37,130326,,,A,V
5635: 54294085,9439139
Delta latt/lon(min/100000): 6,3
54
r (m): 1.158143,lat(cm): 111, lon(cm): 32
stack_usage: 652
$GNRMC,202244.000,A,5429.4085,N,00943.9139,E,0.00,359.37,130326,,,A,V
5636: 54294085,9439139
Delta latt/lon(min/100000): 6,3
54
r (m): 1.158143,lat(cm): 111, lon(cm): 32
stack_usage: 652
$GNRMC,202245.000,A,5429.4085,N,00943.9139,E,0.00,359.37,130326,,,A,V
5637: 54294085,9439139
Delta latt/lon(min/100000): 6,3
54
r (m): 1.158143,lat(cm): 111, lon(cm): 32
stack_usage: 652
$GNRMC,202246.000,A,5429.4085,N,00943.9139,E,0.00,359.37,130326,,,A,V
5638: 54294085,9439139
Delta latt/lon(min/100000): 6,3
54
r (m): 1.158143,lat(cm): 111, lon(cm): 32
stack_usage: 652
$GNRMC,202247.000,A,5429.4085,N,00943.9139,E,0.00,359.37,130326,,,A,V
5639: 54294085,9439139
Delta latt/lon(min/100000): 6,3
54
r (m): 1.158143,lat(cm): 111, lon(cm): 32
stack_usage: 652
$GNRMC,202248.000,A,5429.4085,N,00943.9139,E,0.00,359.37,130326,,,A,V
5640: 54294085,9439139
Delta latt/lon(min/100000): 6,3
54
r (m): 1.158143,lat(cm): 111, lon(cm): 32
stack_usage: 652
$GNRMC,202249.000,A,5429.4085,N,00943.9139,E,0.00,359.37,130326,,,A,V
5641: 54294085,9439139
Delta latt/lon(min/100000): 6,3
54
r (m): 1.158143,lat(cm): 111, lon(cm): 32
stack_usage: 652
$GNRMC,202250.000,A,5429.4085,N,00943.9139,E,0.00,359.37,130326,,,A,V
5642: 54294085,9439139
Delta latt/lon(min/100000): 6,3
54
r (m): 1.158143,lat(cm): 111, lon(cm): 32
stack_usage: 652
$GNRMC,202251.000,A,5429.4085,N,00943.9139,E,0.81,359.37,130326,,,A,V
5643: 54294085,9439139
Delta latt/lon(min/100000): 6,3
54
r (m): 1.158143,lat(cm): 111, lon(cm): 32
stack_usage: 652
$GNRMC,202252.000,A,5429.4085,N,00943.9139,E,0.00,359.37,130326,,,A,V
5644: 54294085,9439139
Delta latt/lon(min/100000): 6,3
54
r (m): 1.158143,lat(cm): 111, lon(cm): 32
stack_usage: 652
$GNRMC,202253.000,A,5429.4085,N,00943.9139,E,0.00,359.37,130326,,,A,V
5645: 54294085,9439139
Delta latt/lon(min/100000): 6,3
54
r (m): 1.158143,lat(cm): 111, lon(cm): 32
stack_usage: 652
$GNRMC,202254.000,A,5429.4085,N,00943.9139,E,0.00,359.37,130326,,,A,V
5646: 54294085,9439139
Delta latt/lon(min/100000): 6,3
54
r (m): 1.158143,lat(cm): 111, lon(cm): 32
stack_usage: 652
$GNRMC,202255.000,A,5429.4085,N,00943.9139,E,0.00,359.37,130326,,,A,V
5647: 54294085,9439139
Delta latt/lon(min/100000): 6,3
54
r (m): 1.158143,lat(cm): 111, lon(cm): 32
stack_usage: 652
$GNRMC,202256.000,A,5429.4085,N,00943.9139,E,0.00,359.37,130326,,,A,V
5648: 54294085,9439139
Delta latt/lon(min/100000): 6,3
54
r (m): 1.158143,lat(cm): 111, lon(cm): 32
stack_usage: 652
$GNRMC,202257.000,A,5429.4085,N,00943.9139,E,0.00,359.37,130326,,,A,V
5649: 54294085,9439139
Delta latt/lon(min/100000): 6,3
54
r (m): 1.158143,lat(cm): 111, lon(cm): 32
stack_usage: 652
$GNRMC,202258.000,A,5429.4085,N,00943.9139,E,1.21,359.37,130326,,,A,V
5650: 54294085,9439139
Delta latt/lon(min/100000): 6,3
54
r (m): 1.158143,lat(cm): 111, lon(cm): 32
stack_usage: 652
$GNRMC,202259.000,A,5429.4072,N,00943.9131,E,0.89,359.37,130326,,,A,V
5651: 54294072,9439131
Delta latt/lon(min/100000): -7,-5
54
r (m): 1.405904,lat(cm): -129, lon(cm): -54
stack_usage: 652
$GNRMC,202300.000,A,5429.4072,N,00943.9128,E,0.00,359.37,130326,,,A,V
5692: 54294072,9439128
Delta latt/lon(min/100000): -7,-8
54
r (m): 1.561471,lat(cm): -129, lon(cm): -86
stack_usage: 652
$GNRMC,202301.000,A,5429.4071,N,00943.9126,E,0.00,359.37,130326,,,A,V
5693: 54294071,9439126
Delta latt/lon(min/100000): -8,-10
54
r (m): 1.838149,lat(cm): -148, lon(cm): -108
stack_usage: 652
$GNRMC,202302.000,A,5429.4071,N,00943.9126,E,0.00,359.37,130326,,,A,V
5694: 54294071,9439126
Delta latt/lon(min/100000): -8,-10
54
r (m): 1.838149,lat(cm): -148, lon(cm): -108
stack_usage: 652
$GNRMC,202303.000,A,5429.4071,N,00943.9126,E,0.00,359.37,130326,,,A,V
5695: 54294071,9439126
Delta latt/lon(min/100000): -8,-10
54
r (m): 1.838149,lat(cm): -148, lon(cm): -108
stack_usage: 652
$GNRMC,202304.000,A,5429.4071,N,00943.9126,E,0.00,359.37,130326,,,A,V
5696: 54294071,9439126
Delta latt/lon(min/100000): -8,-10
54
r (m): 1.838149,lat(cm): -148, lon(cm): -108
stack_usage: 652
$GNRMC,202305.000,A,5429.4071,N,00943.9126,E,1.13,359.37,130326,,,A,V
5697: 54294071,9439126
Delta latt/lon(min/100000): -8,-10
54
r (m): 1.838149,lat(cm): -148, lon(cm): -108
stack_usage: 652
$GNRMC,202306.000,A,5429.4071,N,00943.9126,E,0.00,359.37,130326,,,A,V
5698: 54294071,9439126
Delta latt/lon(min/100000): -8,-10
54
r (m): 1.838149,lat(cm): -148, lon(cm): -108
stack_usage: 652
$GNRMC,202307.000,A,5429.4071,N,00943.9126,E,0.00,359.37,130326,,,A,V
5699: 54294071,9439126
Delta latt/lon(min/100000): -8,-10
54
r (m): 1.838149,lat(cm): -148, lon(cm): -108
stack_usage: 652
$GNRMC,202308.000,A,5429.4071,N,00943.9126,E,0.00,359.37,130326,,,A,V
5700: 54294071,9439126
Delta latt/lon(min/100000): -8,-10
54
r (m): 1.838149,lat(cm): -148, lon(cm): -108
stack_usage: 652
$GNRMC,202309.000,A,5429.4071,N,00943.9126,E,0.00,359.37,130326,,,A,V
5701: 54294071,9439126
Delta latt/lon(min/100000): -8,-10
54
r (m): 1.838149,lat(cm): -148, lon(cm): -108
stack_usage: 652
$GNRMC,202310.000,A,5429.4071,N,00943.9126,E,0.00,359.37,130326,,,A,V
5702: 54294071,9439126
Delta latt/lon(min/100000): -8,-10
54
r (m): 1.838149,lat(cm): -148, lon(cm): -108
stack_usage: 652
$GNRMC,202311.000,A,5429.4071,N,00943.9126,E,0.00,359.37,130326,,,A,V
5703: 54294071,9439126
Delta latt/lon(min/100000): -8,-10
54
r (m): 1.838149,lat(cm): -148, lon(cm): -108
stack_usage: 652
$GNRMC,202312.000,A,5429.4071,N,00943.9126,E,0.00,359.37,130326,,,A,V
5704: 54294071,9439126
Delta latt/lon(min/100000): -8,-10
54
r (m): 1.838149,lat(cm): -148, lon(cm): -108
stack_usage: 652
$GNRMC,202313.000,A,5429.4071,N,00943.9126,E,0.00,359.37,130326,,,A,V
5705: 54294071,9439126
Delta latt/lon(min/100000): -8,-10
54
r (m): 1.838149,lat(cm): -148, lon(cm): -108
stack_usage: 652
$GNRMC,202314.000,A,5429.4071,N,00943.9126,E,0.00,359.37,130326,,,A,V
5706: 54294071,9439126
Delta latt/lon(min/100000): -8,-10
54
r (m): 1.838149,lat(cm): -148, lon(cm): -108
stack_usage: 652
$GNRMC,202315.000,A,5429.4071,N,00943.9126,E,0.00,359.37,130326,,,A,V
5707: 54294071,9439126
Delta latt/lon(min/100000): -8,-10
54
r (m): 1.838149,lat(cm): -148, lon(cm): -108
stack_usage: 652
$GNRMC,202316.000,A,5429.4071,N,00943.9126,E,0.00,359.37,130326,,,A,V
5708: 54294071,9439126
Delta latt/lon(min/100000): -8,-10
54
r (m): 1.838149,lat(cm): -148, lon(cm): -108
stack_usage: 652
$GNRMC,202317.000,A,5429.4071,N,00943.9126,E,0.00,359.37,130326,,,A,V
5709: 54294071,9439126
Delta latt/lon(min/100000): -8,-10
54
r (m): 1.838149,lat(cm): -148, lon(cm): -108
stack_usage: 652
$GNRMC,202318.000,A,5429.4071,N,00943.9126,E,0.00,359.37,130326,,,A,V
5710: 54294071,9439126
Delta latt/lon(min/100000): -8,-10
54
r (m): 1.838149,lat(cm): -148, lon(cm): -108
stack_usage: 652
$GNRMC,202319.000,A,5429.4071,N,00943.9126,E,0.00,359.37,130326,,,A,V
5711: 54294071,9439126
Delta latt/lon(min/100000): -8,-10
54
r (m): 1.838149,lat(cm): -148, lon(cm): -108
stack_usage: 652
$GNRMC,202320.000,A,5429.4071,N,00943.9126,E,0.00,359.37,130326,,,A,V
5712: 54294071,9439126
Delta latt/lon(min/100000): -8,-10
54
r (m): 1.838149,lat(cm): -148, lon(cm): -108
stack_usage: 652
$GNRMC,202321.000,A,5429.4071,N,00943.9126,E,0.00,359.37,130326,,,A,V
5713: 54294071,9439126
Delta latt/lon(min/100000): -8,-10
54
r (m): 1.838149,lat(cm): -148, lon(cm): -108
stack_usage: 652
$GNRMC,202322.000,A,5429.4071,N,00943.9126,E,0.00,359.37,130326,,,A,V
5714: 54294071,9439126
Delta latt/lon(min/100000): -8,-10
54
r (m): 1.838149,lat(cm): -148, lon(cm): -108
stack_usage: 652
$GNRMC,202323.000,A,5429.4071,N,00943.9126,E,0.00,359.37,130326,,,A,V
5715: 54294071,9439126
Delta latt/lon(min/100000): -8,-10
54
r (m): 1.838149,lat(cm): -148, lon(cm): -108
stack_usage: 652
$GNRMC,202324.000,A,5429.4071,N,00943.9126,E,0.00,359.37,130326,,,A,V
5716: 54294071,9439126
Delta latt/lon(min/100000): -8,-10
54
r (m): 1.838149,lat(cm): -148, lon(cm): -108
stack_usage: 652
$GNRMC,202325.000,A,5429.4071,N,00943.9126,E,0.00,359.37,130326,,,A,V
5717: 54294071,9439126
Delta latt/lon(min/100000): -8,-10
54
r (m): 1.838149,lat(cm): -148, lon(cm): -108
stack_usage: 652
$GNRMC,202326.000,A,5429.4071,N,00943.9126,E,1.12,359.37,130326,,,A,V
5718: 54294071,9439126
Delta latt/lon(min/100000): -8,-10
54
r (m): 1.838149,lat(cm): -148, lon(cm): -108
stack_usage: 652
$GNRMC,202327.000,A,5429.4078,N,00943.9143,E,0.89,359.37,130326,,,A,V
5719: 54294078,9439143
Delta latt/lon(min/100000): -1,7
54
r (m): 0.783766,lat(cm): -18, lon(cm): 75
stack_usage: 652
$GNRMC,202328.000,A,5429.4080,N,00943.9142,E,0.00,359.37,130326,,,A,V
5720: 54294080,9439142
Delta latt/lon(min/100000): 1,6
54
r (m): 0.678538,lat(cm): 18, lon(cm): 64
stack_usage: 652
$GNRMC,202329.000,A,5429.4079,N,00943.9143,E,0.00,359.37,130326,,,A,V
5721: 54294079,9439143
Delta latt/lon(min/100000): 0,7
54
r (m): 0.761571,lat(cm): 0, lon(cm): 75
stack_usage: 652
$GNRMC,202330.000,A,5429.4074,N,00943.9142,E,0.00,359.37,130326,,,A,V
5722: 54294074,9439142
Delta latt/lon(min/100000): -5,6
54
r (m): 1.132957,lat(cm): -92, lon(cm): 64
stack_usage: 652
$GNRMC,202331.000,A,5429.4074,N,00943.9142,E,0.00,359.37,130326,,,A,V
5723: 54294074,9439142
Delta latt/lon(min/100000): -5,6
54
r (m): 1.132957,lat(cm): -92, lon(cm): 64
stack_usage: 652
$GNRMC,202332.000,A,5429.4074,N,00943.9142,E,0.00,359.37,130326,,,A,V
5724: 54294074,9439142
Delta latt/lon(min/100000): -5,6
54
r (m): 1.132957,lat(cm): -92, lon(cm): 64
stack_usage: 652
$GNRMC,202333.000,A,5429.4074,N,00943.9142,E,0.00,359.37,130326,,,A,V
5725: 54294074,9439142
Delta latt/lon(min/100000): -5,6
54
r (m): 1.132957,lat(cm): -92, lon(cm): 64
stack_usage: 652
$GNRMC,202334.000,A,5429.4074,N,00943.9142,E,0.00,359.37,130326,,,A,V
5726: 54294074,9439142
Delta latt/lon(min/100000): -5,6
54
r (m): 1.132957,lat(cm): -92, lon(cm): 64
stack_usage: 652
$GNRMC,202335.000,A,5429.4074,N,00943.9142,E,0.00,359.37,130326,,,A,V
5727: 54294074,9439142
Delta latt/lon(min/100000): -5,6
54
r (m): 1.132957,lat(cm): -92, lon(cm): 64
stack_usage: 652
$GNRMC,202336.000,A,5429.4074,N,00943.9142,E,0.00,359.37,130326,,,A,V
5728: 54294074,9439142
Delta latt/lon(min/100000): -5,6
54
r (m): 1.132957,lat(cm): -92, lon(cm): 64
stack_usage: 652
$GNRMC,202337.000,A,5429.4074,N,00943.9142,E,0.00,359.37,130326,,,A,V
5729: 54294074,9439142
Delta latt/lon(min/100000): -5,6
54
r (m): 1.132957,lat(cm): -92, lon(cm): 64
stack_usage: 652
$GNRMC,202338.000,A,5429.4074,N,00943.9142,E,0.00,359.37,130326,,,A,V
5730: 54294074,9439142
Delta latt/lon(min/100000): -5,6
54
r (m): 1.132957,lat(cm): -92, lon(cm): 64
stack_usage: 652
$GNRMC,202339.000,A,5429.4074,N,00943.9142,E,0.00,359.37,130326,,,A,V
5731: 54294074,9439142
Delta latt/lon(min/100000): -5,6
54
r (m): 1.132957,lat(cm): -92, lon(cm): 64
stack_usage: 652
$GNRMC,202340.000,A,5429.4074,N,00943.9142,E,0.99,359.37,130326,,,A,V
5732: 54294074,9439142
Delta latt/lon(min/100000): -5,6
54
r (m): 1.132957,lat(cm): -92, lon(cm): 64
stack_usage: 652
$GNRMC,202341.000,A,5429.4074,N,00943.9142,E,0.00,359.37,130326,,,A,V
5733: 54294074,9439142
Delta latt/lon(min/100000): -5,6
54
r (m): 1.132957,lat(cm): -92, lon(cm): 64
stack_usage: 652
$GNRMC,202342.000,A,5429.4074,N,00943.9142,E,0.00,359.37,130326,,,A,V
5734: 54294074,9439142
Delta latt/lon(min/100000): -5,6
54
r (m): 1.132957,lat(cm): -92, lon(cm): 64
stack_usage: 652
$GNRMC,202343.000,A,5429.4074,N,00943.9142,E,0.00,359.37,130326,,,A,V
5735: 54294074,9439142
Delta latt/lon(min/100000): -5,6
54
r (m): 1.132957,lat(cm): -92, lon(cm): 64
stack_usage: 652
$GNRMC,202344.000,A,5429.4074,N,00943.9142,E,0.00,359.37,130326,,,A,V
5736: 54294074,9439142
Delta latt/lon(min/100000): -5,6
54
r (m): 1.132957,lat(cm): -92, lon(cm): 64
stack_usage: 652
$GNRMC,202345.000,A,5429.4074,N,00943.9142,E,0.00,359.37,130326,,,A,V
5737: 54294074,9439142
Delta latt/lon(min/100000): -5,6
54
r (m): 1.132957,lat(cm): -92, lon(cm): 64
stack_usage: 652
$GNRMC,202346.000,A,5429.4074,N,00943.9142,E,0.00,359.37,130326,,,A,V
5738: 54294074,9439142
Delta latt/lon(min/100000): -5,6
54
r (m): 1.132957,lat(cm): -92, lon(cm): 64
stack_usage: 652
$GNRMC,202347.000,A,5429.4074,N,00943.9142,E,0.00,359.37,130326,,,A,V
5739: 54294074,9439142
Delta latt/lon(min/100000): -5,6
54
r (m): 1.132957,lat(cm): -92, lon(cm): 64
stack_usage: 652
$GNRMC,202348.000,A,5429.4074,N,00943.9142,E,0.00,359.37,130326,,,A,V
5740: 54294074,9439142
Delta latt/lon(min/100000): -5,6
54
r (m): 1.132957,lat(cm): -92, lon(cm): 64
stack_usage: 652
$GNRMC,202349.000,A,5429.4074,N,00943.9142,E,0.00,359.37,130326,,,A,V
5741: 54294074,9439142
Delta latt/lon(min/100000): -5,6
54
r (m): 1.132957,lat(cm): -92, lon(cm): 64
stack_usage: 652
$GNRMC,202350.000,A,5429.4074,N,00943.9142,E,0.00,359.37,130326,,,A,V
5742: 54294074,9439142
Delta latt/lon(min/100000): -5,6
54
r (m): 1.132957,lat(cm): -92, lon(cm): 64
stack_usage: 652
$GNRMC,202351.000,A,5429.4074,N,00943.9142,E,0.00,359.37,130326,,,A,V
5743: 54294074,9439142
Delta latt/lon(min/100000): -5,6
54
r (m): 1.132957,lat(cm): -92, lon(cm): 64
stack_usage: 652
$GNRMC,202352.000,A,5429.4074,N,00943.9142,E,0.00,359.37,130326,,,A,V
5744: 54294074,9439142
Delta latt/lon(min/100000): -5,6
54
r (m): 1.132957,lat(cm): -92, lon(cm): 64
stack_usage: 652
$GNRMC,202353.000,A,5429.4074,N,00943.9142,E,0.00,359.37,130326,,,A,V
5745: 54294074,9439142
Delta latt/lon(min/100000): -5,6
54
r (m): 1.132957,lat(cm): -92, lon(cm): 64
stack_usage: 652
$GNRMC,202354.000,A,5429.4074,N,00943.9142,E,0.00,359.37,130326,,,A,V
5746: 54294074,9439142
Delta latt/lon(min/100000): -5,6
54
r (m): 1.132957,lat(cm): -92, lon(cm): 64
stack_usage: 652
$GNRMC,202355.000,A,5429.4074,N,00943.9142,E,0.00,359.37,130326,,,A,V
5747: 54294074,9439142
Delta latt/lon(min/100000): -5,6
54
r (m): 1.132957,lat(cm): -92, lon(cm): 64
stack_usage: 652
$GNRMC,202356.000,A,5429.4074,N,00943.9142,E,1.02,359.37,130326,,,A,V
5748: 54294074,9439142
Delta latt/lon(min/100000): -5,6
54
r (m): 1.132957,lat(cm): -92, lon(cm): 64
stack_usage: 652
$GNRMC,202357.000,A,5429.4081,N,00943.9143,E,1.08,359.37,130326,,,A,V
5749: 54294081,9439143
Delta latt/lon(min/100000): 2,7
54
r (m): 0.846868,lat(cm): 37, lon(cm): 75
stack_usage: 652
$GNRMC,202358.000,A,5429.4080,N,00943.9146,E,0.00,359.37,130326,,,A,V
5750: 54294080,9439146
Delta latt/lon(min/100000): 1,10
54
r (m): 1.103609,lat(cm): 18, lon(cm): 108
stack_usage: 652
$GNRMC,202359.000,A,5429.4081,N,00943.9146,E,0.00,359.37,130326,,,A,V
5751: 54294081,9439146
Delta latt/lon(min/100000): 2,10
54
r (m): 1.149282,lat(cm): 37, lon(cm): 108
stack_usage: 652
$GNRMC,202400.000,A,5429.4083,N,00943.9148,E,0.83,359.37,130326,,,A,V
5792: 54294083,9439148
Delta latt/lon(min/100000): 4,12
54
r (m): 1.501081,lat(cm): 74, lon(cm): 129
stack_usage: 652
$GNRMC,202401.000,A,5429.4083,N,00943.9148,E,0.00,359.37,130326,,,A,V
5793: 54294083,9439148
Delta latt/lon(min/100000): 4,12
54
r (m): 1.501081,lat(cm): 74, lon(cm): 129
stack_usage: 652
$GNRMC,202402.000,A,5429.4083,N,00943.9148,E,0.85,359.37,130326,,,A,V
5794: 54294083,9439148
Delta latt/lon(min/100000): 4,12
54
r (m): 1.501081,lat(cm): 74, lon(cm): 129
stack_usage: 652
$GNRMC,202403.000,A,5429.4083,N,00943.9148,E,0.00,359.37,130326,,,A,V
5795: 54294083,9439148
Delta latt/lon(min/100000): 4,12
54
r (m): 1.501081,lat(cm): 74, lon(cm): 129
stack_usage: 652
$GNRMC,202404.000,A,5429.4083,N,00943.9148,E,1.03,359.37,130326,,,A,V
5796: 54294083,9439148
Delta latt/lon(min/100000): 4,12
54
r (m): 1.501081,lat(cm): 74, lon(cm): 129
stack_usage: 652
$GNRMC,202405.000,A,5429.4083,N,00943.9148,E,0.00,359.37,130326,,,A,V
5797: 54294083,9439148
Delta latt/lon(min/100000): 4,12
54
r (m): 1.501081,lat(cm): 74, lon(cm): 129
stack_usage: 652
$GNRMC,202406.000,A,5429.4083,N,00943.9148,E,0.00,359.37,130326,,,A,V
5798: 54294083,9439148
Delta latt/lon(min/100000): 4,12
54
r (m): 1.501081,lat(cm): 74, lon(cm): 129
stack_usage: 652
$GNRMC,202407.000,A,5429.4083,N,00943.9148,E,0.00,359.37,130326,,,A,V
5799: 54294083,9439148
Delta latt/lon(min/100000): 4,12
54
r (m): 1.501081,lat(cm): 74, lon(cm): 129
stack_usage: 652
$GNRMC,202408.000,A,5429.4083,N,00943.9148,E,0.87,359.37,130326,,,A,V
5800: 54294083,9439148
Delta latt/lon(min/100000): 4,12
54
r (m): 1.501081,lat(cm): 74, lon(cm): 129
stack_usage: 652
$GNRMC,202409.000,A,5429.4075,N,00943.9153,E,0.83,359.37,130326,,,A,V
5801: 54294075,9439153
Delta latt/lon(min/100000): -4,17
54
r (m): 1.992371,lat(cm): -74, lon(cm): 183
stack_usage: 652
$GNRMC,202410.000,A,5429.4074,N,00943.9153,E,0.00,359.37,130326,,,A,V
5802: 54294074,9439153
Delta latt/lon(min/100000): -5,17
54
r (m): 2.068389,lat(cm): -92, lon(cm): 183
stack_usage: 652
$GNRMC,202411.000,A,5429.4072,N,00943.9149,E,0.00,359.37,130326,,,A,V
5803: 54294072,9439149
Delta latt/lon(min/100000): -7,13
54
r (m): 1.918600,lat(cm): -129, lon(cm): 140
stack_usage: 652
$GNRMC,202412.000,A,5429.4069,N,00943.9145,E,1.18,359.37,130326,,,A,V
5804: 54294069,9439145
Delta latt/lon(min/100000): -10,9
54
r (m): 2.094913,lat(cm): -185, lon(cm): 97
stack_usage: 652
$GNRMC,202413.000,A,5429.4068,N,00943.9139,E,1.02,359.37,130326,,,A,V
5805: 54294068,9439139
Delta latt/lon(min/100000): -11,3
54
r (m): 2.063180,lat(cm): -203, lon(cm): 32
stack_usage: 652
$GNRMC,202414.000,A,5429.4069,N,00943.9135,E,0.00,359.37,130326,,,A,V
5806: 54294069,9439135
Delta latt/lon(min/100000): -10,-1
54
r (m): 1.855193,lat(cm): -185, lon(cm): -10
stack_usage: 652
$GNRMC,202415.000,A,5429.4067,N,00943.9137,E,0.00,359.37,130326,,,A,V
5807: 54294067,9439137
Delta latt/lon(min/100000): -12,1
54
r (m): 2.225061,lat(cm): -222, lon(cm): 10
stack_usage: 652
$GNRMC,202416.000,A,5429.4065,N,00943.9135,E,0.00,359.37,130326,,,A,V
5808: 54294065,9439135
Delta latt/lon(min/100000): -14,-1
54
r (m): 2.595082,lat(cm): -259, lon(cm): -10
stack_usage: 652
$GNRMC,202417.000,A,5429.4065,N,00943.9135,E,0.00,359.37,130326,,,A,V
5809: 54294065,9439135
Delta latt/lon(min/100000): -14,-1
54
r (m): 2.595082,lat(cm): -259, lon(cm): -10
stack_usage: 652
$GNRMC,202418.000,A,5429.4065,N,00943.9135,E,0.00,359.37,130326,,,A,V
5810: 54294065,9439135
Delta latt/lon(min/100000): -14,-1
54
r (m): 2.595082,lat(cm): -259, lon(cm): -10
stack_usage: 652
$GNRMC,202419.000,A,5429.4065,N,00943.9135,E,0.00,359.37,130326,,,A,V
5811: 54294065,9439135
Delta latt/lon(min/100000): -14,-1
54
r (m): 2.595082,lat(cm): -259, lon(cm): -10
stack_usage: 652
$GNRMC,202420.000,A,5429.4065,N,00943.9135,E,0.00,359.37,130326,,,A,V
5812: 54294065,9439135
Delta latt/lon(min/100000): -14,-1
54
r (m): 2.595082,lat(cm): -259, lon(cm): -10
stack_usage: 652
$GNRMC,202421.000,A,5429.4065,N,00943.9135,E,0.00,359.37,130326,,,A,V
5813: 54294065,9439135
Delta latt/lon(min/100000): -14,-1
54
r (m): 2.595082,lat(cm): -259, lon(cm): -10
stack_usage: 652
$GNRMC,202422.000,A,5429.4065,N,00943.9135,E,0.00,359.37,130326,,,A,V
5814: 54294065,9439135
Delta latt/lon(min/100000): -14,-1
54
r (m): 2.595082,lat(cm): -259, lon(cm): -10
stack_usage: 652
$GNRMC,202423.000,A,5429.4065,N,00943.9135,E,0.00,359.37,130326,,,A,V
5815: 54294065,9439135
Delta latt/lon(min/100000): -14,-1
54
r (m): 2.595082,lat(cm): -259, lon(cm): -10
stack_usage: 652
$GNRMC,202424.000,A,5429.4065,N,00943.9135,E,0.00,359.37,130326,,,A,V
5816: 54294065,9439135
Delta latt/lon(min/100000): -14,-1
54
r (m): 2.595082,lat(cm): -259, lon(cm): -10
stack_usage: 652
$GNRMC,202425.000,A,5429.4065,N,00943.9135,E,0.00,359.37,130326,,,A,V
5817: 54294065,9439135
Delta latt/lon(min/100000): -14,-1
54
r (m): 2.595082,lat(cm): -259, lon(cm): -10
stack_usage: 652
$GNRMC,202426.000,A,5429.4065,N,00943.9135,E,0.00,359.37,130326,,,A,V
5818: 54294065,9439135
Delta latt/lon(min/100000): -14,-1
54
r (m): 2.595082,lat(cm): -259, lon(cm): -10
stack_usage: 652
$GNRMC,202427.000,A,5429.4065,N,00943.9135,E,0.00,359.37,130326,,,A,V
5819: 54294065,9439135
Delta latt/lon(min/100000): -14,-1
54
r (m): 2.595082,lat(cm): -259, lon(cm): -10
stack_usage: 652
$GNRMC,202428.000,A,5429.4065,N,00943.9135,E,0.00,359.37,130326,,,A,V
5820: 54294065,9439135
Delta latt/lon(min/100000): -14,-1
54
r (m): 2.595082,lat(cm): -259, lon(cm): -10
stack_usage: 652
$GNRMC,202429.000,A,5429.4065,N,00943.9135,E,0.00,359.37,130326,,,A,V
5821: 54294065,9439135
Delta latt/lon(min/100000): -14,-1
54
r (m): 2.595082,lat(cm): -259, lon(cm): -10
stack_usage: 652
$GNRMC,202430.000,A,5429.4065,N,00943.9135,E,0.00,359.37,130326,,,A,V
5822: 54294065,9439135
Delta latt/lon(min/100000): -14,-1
54
r (m): 2.595082,lat(cm): -259, lon(cm): -10
stack_usage: 652
$GNRMC,202431.000,A,5429.4065,N,00943.9135,E,0.00,359.37,130326,,,A,V
5823: 54294065,9439135
Delta latt/lon(min/100000): -14,-1
54
r (m): 2.595082,lat(cm): -259, lon(cm): -10
stack_usage: 652
$GNRMC,202432.000,A,5429.4065,N,00943.9135,E,0.00,359.37,130326,,,A,V
5824: 54294065,9439135
Delta latt/lon(min/100000): -14,-1
54
r (m): 2.595082,lat(cm): -259, lon(cm): -10
stack_usage: 652
$GNRMC,202433.000,A,5429.4065,N,00943.9135,E,0.00,359.37,130326,,,A,V
5825: 54294065,9439135
Delta latt/lon(min/100000): -14,-1
54
r (m): 2.595082,lat(cm): -259, lon(cm): -10
stack_usage: 652
$GNRMC,202434.000,A,5429.4065,N,00943.9135,E,0.00,359.37,130326,,,A,V
5826: 54294065,9439135
Delta latt/lon(min/100000): -14,-1
54
r (m): 2.595082,lat(cm): -259, lon(cm): -10
stack_usage: 652
$GNRMC,202435.000,A,5429.4065,N,00943.9135,E,0.00,359.37,130326,,,A,V
5827: 54294065,9439135
Delta latt/lon(min/100000): -14,-1
54
r (m): 2.595082,lat(cm): -259, lon(cm): -10
stack_usage: 652
$GNRMC,202436.000,A,5429.4065,N,00943.9135,E,0.00,359.37,130326,,,A,V
5828: 54294065,9439135
Delta latt/lon(min/100000): -14,-1
54
r (m): 2.595082,lat(cm): -259, lon(cm): -10
stack_usage: 652
$GNRMC,202437.000,A,5429.4065,N,00943.9135,E,0.00,359.37,130326,,,A,V
5829: 54294065,9439135
Delta latt/lon(min/100000): -14,-1
54
r (m): 2.595082,lat(cm): -259, lon(cm): -10
stack_usage: 652
$GNRMC,202438.000,A,5429.4065,N,00943.9135,E,0.00,359.37,130326,,,A,V
5830: 54294065,9439135
Delta latt/lon(min/100000): -14,-1
54
r (m): 2.595082,lat(cm): -259, lon(cm): -10
stack_usage: 652
$GNRMC,202439.000,A,5429.4065,N,00943.9135,E,0.00,359.37,130326,,,A,V
5831: 54294065,9439135
Delta latt/lon(min/100000): -14,-1
54
r (m): 2.595082,lat(cm): -259, lon(cm): -10
stack_usage: 652
$GNRMC,202440.000,A,5429.4065,N,00943.9135,E,0.00,359.37,130326,,,A,V
5832: 54294065,9439135
Delta latt/lon(min/100000): -14,-1
54
r (m): 2.595082,lat(cm): -259, lon(cm): -10
stack_usage: 652
$GNRMC,202441.000,A,5429.4065,N,00943.9135,E,0.00,359.37,130326,,,A,V
5833: 54294065,9439135
Delta latt/lon(min/100000): -14,-1
54
r (m): 2.595082,lat(cm): -259, lon(cm): -10
stack_usage: 652
$GNRMC,202442.000,A,5429.4065,N,00943.9135,E,0.00,359.37,130326,,,A,V
5834: 54294065,9439135
Delta latt/lon(min/100000): -14,-1
54
r (m): 2.595082,lat(cm): -259, lon(cm): -10
stack_usage: 652
$GNRMC,202443.000,A,5429.4065,N,00943.9135,E,0.00,359.37,130326,,,A,V
5835: 54294065,9439135
Delta latt/lon(min/100000): -14,-1
54
r (m): 2.595082,lat(cm): -259, lon(cm): -10
stack_usage: 652
$GNRMC,202444.000,A,5429.4065,N,00943.9135,E,0.00,359.37,130326,,,A,V
5836: 54294065,9439135
Delta latt/lon(min/100000): -14,-1
54
r (m): 2.595082,lat(cm): -259, lon(cm): -10
stack_usage: 652
$GNRMC,202445.000,A,5429.4065,N,00943.9135,E,0.00,359.37,130326,,,A,V
5837: 54294065,9439135
Delta latt/lon(min/100000): -14,-1
54
r (m): 2.595082,lat(cm): -259, lon(cm): -10
stack_usage: 652
$GNRMC,202446.000,A,5429.4065,N,00943.9135,E,0.00,359.37,130326,,,A,V
5838: 54294065,9439135
Delta latt/lon(min/100000): -14,-1
54
r (m): 2.595082,lat(cm): -259, lon(cm): -10
stack_usage: 652
$GNRMC,202447.000,A,5429.4065,N,00943.9135,E,0.00,359.37,130326,,,A,V
5839: 54294065,9439135
Delta latt/lon(min/100000): -14,-1
54
r (m): 2.595082,lat(cm): -259, lon(cm): -10
stack_usage: 652
$GNRMC,202448.000,A,5429.4065,N,00943.9135,E,0.00,359.37,130326,,,A,V
5840: 54294065,9439135
Delta latt/lon(min/100000): -14,-1
54
r (m): 2.595082,lat(cm): -259, lon(cm): -10
stack_usage: 652
$GNRMC,202449.000,A,5429.4065,N,00943.9135,E,0.00,359.37,130326,,,A,V
5841: 54294065,9439135
Delta latt/lon(min/100000): -14,-1
54
r (m): 2.595082,lat(cm): -259, lon(cm): -10
stack_usage: 652
$GNRMC,202450.000,A,5429.4065,N,00943.9135,E,0.00,359.37,130326,,,A,V
5842: 54294065,9439135
Delta latt/lon(min/100000): -14,-1
54
r (m): 2.595082,lat(cm): -259, lon(cm): -10
stack_usage: 652
$GNRMC,202451.000,A,5429.4065,N,00943.9135,E,0.00,359.37,130326,,,A,V
5843: 54294065,9439135
Delta latt/lon(min/100000): -14,-1
54
r (m): 2.595082,lat(cm): -259, lon(cm): -10
stack_usage: 652
$GNRMC,202452.000,A,5429.4065,N,00943.9135,E,0.00,359.37,130326,,,A,V
5844: 54294065,9439135
Delta latt/lon(min/100000): -14,-1
54
r (m): 2.595082,lat(cm): -259, lon(cm): -10
stack_usage: 652
$GNRMC,202453.000,A,5429.4065,N,00943.9135,E,0.00,359.37,130326,,,A,V
5845: 54294065,9439135
Delta latt/lon(min/100000): -14,-1
54
r (m): 2.595082,lat(cm): -259, lon(cm): -10
stack_usage: 652
$GNRMC,202454.000,A,5429.4065,N,00943.9135,E,0.00,359.37,130326,,,A,V
5846: 54294065,9439135
Delta latt/lon(min/100000): -14,-1
54
r (m): 2.595082,lat(cm): -259, lon(cm): -10
stack_usage: 652
$GNRMC,202455.000,A,5429.4065,N,00943.9135,E,0.00,359.37,130326,,,A,V
5847: 54294065,9439135
Delta latt/lon(min/100000): -14,-1
54
r (m): 2.595082,lat(cm): -259, lon(cm): -10
stack_usage: 652
$GNRMC,202456.000,A,5429.4065,N,00943.9135,E,0.00,359.37,130326,,,A,V
5848: 54294065,9439135
Delta latt/lon(min/100000): -14,-1
54
r (m): 2.595082,lat(cm): -259, lon(cm): -10
stack_usage: 652
$GNRMC,202457.000,A,5429.4065,N,00943.9135,E,0.00,359.37,130326,,,A,V
5849: 54294065,9439135
Delta latt/lon(min/100000): -14,-1
54
r (m): 2.595082,lat(cm): -259, lon(cm): -10
stack_usage: 652
$GNRMC,202458.000,A,5429.4065,N,00943.9135,E,0.00,359.37,130326,,,A,V
5850: 54294065,9439135
Delta latt/lon(min/100000): -14,-1
54
r (m): 2.595082,lat(cm): -259, lon(cm): -10
stack_usage: 652
$GNRMC,202459.000,A,5429.4065,N,00943.9135,E,0.00,359.37,130326,,,A,V
5851: 54294065,9439135
Delta latt/lon(min/100000): -14,-1
54
r (m): 2.595082,lat(cm): -259, lon(cm): -10
stack_usage: 652
$GNRMC,202500.000,A,5429.4065,N,00943.9135,E,0.00,359.37,130326,,,A,V
5892: 54294065,9439135
Delta latt/lon(min/100000): -14,-1
54
r (m): 2.595082,lat(cm): -259, lon(cm): -10
stack_usage: 652
$GNRMC,202501.000,A,5429.4065,N,00943.9135,E,0.00,359.37,130326,,,A,V
5893: 54294065,9439135
Delta latt/lon(min/100000): -14,-1
54
r (m): 2.595082,lat(cm): -259, lon(cm): -10
stack_usage: 652
$GNRMC,202502.000,A,5429.4065,N,00943.9135,E,0.00,359.37,130326,,,A,V
5894: 54294065,9439135
Delta latt/lon(min/100000): -14,-1
54
r (m): 2.595082,lat(cm): -259, lon(cm): -10
stack_usage: 652
$GNRMC,202503.000,A,5429.4065,N,00943.9135,E,0.00,359.37,130326,,,A,V
5895: 54294065,9439135
Delta latt/lon(min/100000): -14,-1
54
r (m): 2.595082,lat(cm): -259, lon(cm): -10
stack_usage: 652
$GNRMC,202504.000,A,5429.4065,N,00943.9135,E,0.00,359.37,130326,,,A,V
5896: 54294065,9439135
Delta latt/lon(min/100000): -14,-1
54
r (m): 2.595082,lat(cm): -259, lon(cm): -10
stack_usage: 652
$GNRMC,202505.000,A,5429.4065,N,00943.9135,E,0.00,359.37,130326,,,A,V
5897: 54294065,9439135
Delta latt/lon(min/100000): -14,-1
54
r (m): 2.595082,lat(cm): -259, lon(cm): -10
stack_usage: 652
$GNRMC,202506.000,A,5429.4065,N,00943.9135,E,0.00,359.37,130326,,,A,V
5898: 54294065,9439135
Delta latt/lon(min/100000): -14,-1
54
r (m): 2.595082,lat(cm): -259, lon(cm): -10
stack_usage: 652
$GNRMC,202507.000,A,5429.4065,N,00943.9135,E,0.00,359.37,130326,,,A,V
5899: 54294065,9439135
Delta latt/lon(min/100000): -14,-1
54
r (m): 2.595082,lat(cm): -259, lon(cm): -10
stack_usage: 652
$GNRMC,202508.000,A,5429.4065,N,00943.9135,E,0.81,359.37,130326,,,A,V
5900: 54294065,9439135
Delta latt/lon(min/100000): -14,-1
54
r (m): 2.595082,lat(cm): -259, lon(cm): -10
stack_usage: 652
$GNRMC,202509.000,A,5429.4065,N,00943.9135,E,0.00,359.37,130326,,,A,V
5901: 54294065,9439135
Delta latt/lon(min/100000): -14,-1
54
r (m): 2.595082,lat(cm): -259, lon(cm): -10
stack_usage: 652
$GNRMC,202510.000,A,5429.4065,N,00943.9135,E,0.00,359.37,130326,,,A,V
5902: 54294065,9439135
Delta latt/lon(min/100000): -14,-1
54
r (m): 2.595082,lat(cm): -259, lon(cm): -10
stack_usage: 652
$GNRMC,202511.000,A,5429.4065,N,00943.9135,E,0.00,359.37,130326,,,A,V
5903: 54294065,9439135
Delta latt/lon(min/100000): -14,-1
54
r (m): 2.595082,lat(cm): -259, lon(cm): -10
stack_usage: 652
$GNRMC,202512.000,A,5429.4065,N,00943.9135,E,0.00,359.37,130326,,,A,V
5904: 54294065,9439135
Delta latt/lon(min/100000): -14,-1
54
r (m): 2.595082,lat(cm): -259, lon(cm): -10
stack_usage: 652
$GNRMC,202513.000,A,5429.4065,N,00943.9135,E,0.00,359.37,130326,,,A,V
5905: 54294065,9439135
Delta latt/lon(min/100000): -14,-1
54
r (m): 2.595082,lat(cm): -259, lon(cm): -10
stack_usage: 652
$GNRMC,202514.000,A,5429.4065,N,00943.9135,E,0.00,359.37,130326,,,A,V
5906: 54294065,9439135
Delta latt/lon(min/100000): -14,-1
54
r (m): 2.595082,lat(cm): -259, lon(cm): -10
stack_usage: 652
$GNRMC,202515.000,A,5429.4065,N,00943.9135,E,0.00,359.37,130326,,,A,V
5907: 54294065,9439135
Delta latt/lon(min/100000): -14,-1
54
r (m): 2.595082,lat(cm): -259, lon(cm): -10
stack_usage: 652
$GNRMC,202516.000,A,5429.4065,N,00943.9135,E,0.00,359.37,130326,,,A,V
5908: 54294065,9439135
Delta latt/lon(min/100000): -14,-1
54
r (m): 2.595082,lat(cm): -259, lon(cm): -10
stack_usage: 652
$GNRMC,202517.000,A,5429.4065,N,00943.9135,E,0.00,359.37,130326,,,A,V
5909: 54294065,9439135
Delta latt/lon(min/100000): -14,-1
54
r (m): 2.595082,lat(cm): -259, lon(cm): -10
stack_usage: 652
$GNRMC,202518.000,A,5429.4065,N,00943.9135,E,0.00,359.37,130326,,,A,V
5910: 54294065,9439135
Delta latt/lon(min/100000): -14,-1
54
r (m): 2.595082,lat(cm): -259, lon(cm): -10
stack_usage: 652
$GNRMC,202519.000,A,5429.4065,N,00943.9135,E,0.00,359.37,130326,,,A,V
5911: 54294065,9439135
Delta latt/lon(min/100000): -14,-1
54
r (m): 2.595082,lat(cm): -259, lon(cm): -10
stack_usage: 652
$GNRMC,202520.000,A,5429.4065,N,00943.9135,E,0.00,359.37,130326,,,A,V
5912: 54294065,9439135
Delta latt/lon(min/100000): -14,-1
54
r (m): 2.595082,lat(cm): -259, lon(cm): -10
stack_usage: 652
$GNRMC,202521.000,A,5429.4065,N,00943.9135,E,0.00,359.37,130326,,,A,V
5913: 54294065,9439135
Delta latt/lon(min/100000): -14,-1
54
r (m): 2.595082,lat(cm): -259, lon(cm): -10
stack_usage: 652
$GNRMC,202522.000,A,5429.4065,N,00943.9135,E,0.00,359.37,130326,,,A,V
5914: 54294065,9439135
Delta latt/lon(min/100000): -14,-1
54
r (m): 2.595082,lat(cm): -259, lon(cm): -10
stack_usage: 652
$GNRMC,202523.000,A,5429.4065,N,00943.9135,E,0.00,359.37,130326,,,A,V
5915: 54294065,9439135
Delta latt/lon(min/100000): -14,-1
54
r (m): 2.595082,lat(cm): -259, lon(cm): -10
stack_usage: 652
$GNRMC,202524.000,A,5429.4065,N,00943.9135,E,0.00,359.37,130326,,,A,V
5916: 54294065,9439135
Delta latt/lon(min/100000): -14,-1
54
r (m): 2.595082,lat(cm): -259, lon(cm): -10
stack_usage: 652
$GNRMC,202525.000,A,5429.4065,N,00943.9135,E,0.00,359.37,130326,,,A,V
5917: 54294065,9439135
Delta latt/lon(min/100000): -14,-1
54
r (m): 2.595082,lat(cm): -259, lon(cm): -10
stack_usage: 652
$GNRMC,202526.000,A,5429.4065,N,00943.9135,E,0.00,359.37,130326,,,A,V
5918: 54294065,9439135
Delta latt/lon(min/100000): -14,-1
54
r (m): 2.595082,lat(cm): -259, lon(cm): -10
stack_usage: 652
$GNRMC,202527.000,A,5429.4065,N,00943.9135,E,0.00,359.37,130326,,,A,V
5919: 54294065,9439135
Delta latt/lon(min/100000): -14,-1
54
r (m): 2.595082,lat(cm): -259, lon(cm): -10
stack_usage: 652
$GNRMC,202528.000,A,5429.4065,N,00943.9135,E,0.00,359.37,130326,,,A,V
5920: 54294065,9439135
Delta latt/lon(min/100000): -14,-1
54
r (m): 2.595082,lat(cm): -259, lon(cm): -10
stack_usage: 652
$GNRMC,202529.000,A,5429.4065,N,00943.9135,E,0.78,359.37,130326,,,A,V
5921: 54294065,9439135
Delta latt/lon(min/100000): -14,-1
54
r (m): 2.595082,lat(cm): -259, lon(cm): -10
stack_usage: 652
$GNRMC,202530.000,A,5429.4067,N,00943.9123,E,0.78,359.37,130326,,,A,V
5922: 54294067,9439123
Delta latt/lon(min/100000): -12,-13
54
r (m): 2.634281,lat(cm): -222, lon(cm): -140
stack_usage: 652
$GNRMC,202531.000,A,5429.4068,N,00943.9119,E,0.00,359.37,130326,,,A,V
5923: 54294068,9439119
Delta latt/lon(min/100000): -11,-17
54
r (m): 2.751534,lat(cm): -203, lon(cm): -183
stack_usage: 652
$GNRMC,202532.000,A,5429.4069,N,00943.9120,E,0.00,359.37,130326,,,A,V
5924: 54294069,9439120
Delta latt/lon(min/100000): -10,-16
54
r (m): 2.541664,lat(cm): -185, lon(cm): -173
stack_usage: 652
$GNRMC,202533.000,A,5429.4070,N,00943.9122,E,0.00,359.37,130326,,,A,V
5925: 54294070,9439122
Delta latt/lon(min/100000): -9,-14
54
r (m): 2.257915,lat(cm): -166, lon(cm): -151
stack_usage: 652
$GNRMC,202534.000,A,5429.4070,N,00943.9122,E,0.00,359.37,130326,,,A,V
5926: 54294070,9439122
Delta latt/lon(min/100000): -9,-14
54
r (m): 2.257915,lat(cm): -166, lon(cm): -151
stack_usage: 652
$GNRMC,202535.000,A,5429.4070,N,00943.9122,E,0.00,359.37,130326,,,A,V
5927: 54294070,9439122
Delta latt/lon(min/100000): -9,-14
54
r (m): 2.257915,lat(cm): -166, lon(cm): -151
stack_usage: 652
$GNRMC,202536.000,A,5429.4070,N,00943.9122,E,0.00,359.37,130326,,,A,V
5928: 54294070,9439122
Delta latt/lon(min/100000): -9,-14
54
r (m): 2.257915,lat(cm): -166, lon(cm): -151
stack_usage: 652
$GNRMC,202537.000,A,5429.4070,N,00943.9122,E,1.60,359.37,130326,,,A,V
5929: 54294070,9439122
Delta latt/lon(min/100000): -9,-14
54
r (m): 2.257915,lat(cm): -166, lon(cm): -151
stack_usage: 652
$GNRMC,202538.000,A,5429.4070,N,00943.9122,E,0.00,359.37,130326,,,A,V
5930: 54294070,9439122
Delta latt/lon(min/100000): -9,-14
54
r (m): 2.257915,lat(cm): -166, lon(cm): -151
stack_usage: 652
$GNRMC,202539.000,A,5429.4070,N,00943.9122,E,0.82,32.17,130326,,,A,V
5931: 54294070,9439122
Delta latt/lon(min/100000): -9,-14
54
r (m): 2.257915,lat(cm): -166, lon(cm): -151
stack_usage: 652
$GNRMC,202540.000,A,5429.4070,N,00943.9122,E,0.00,359.37,130326,,,A,V
5932: 54294070,9439122
Delta latt/lon(min/100000): -9,-14
54
r (m): 2.257915,lat(cm): -166, lon(cm): -151
stack_usage: 652
$GNRMC,202541.000,A,5429.4070,N,00943.9122,E,0.00,359.37,130326,,,A,V
5933: 54294070,9439122
Delta latt/lon(min/100000): -9,-14
54
r (m): 2.257915,lat(cm): -166, lon(cm): -151
stack_usage: 652
$GNRMC,202542.000,A,5429.4070,N,00943.9122,E,0.00,359.37,130326,,,A,V
5934: 54294070,9439122
Delta latt/lon(min/100000): -9,-14
54
r (m): 2.257915,lat(cm): -166, lon(cm): -151
stack_usage: 652
$GNRMC,202543.000,A,5429.4070,N,00943.9122,E,0.00,359.37,130326,,,A,V
5935: 54294070,9439122
Delta latt/lon(min/100000): -9,-14
54
r (m): 2.257915,lat(cm): -166, lon(cm): -151
stack_usage: 652
$GNRMC,202544.000,A,5429.4070,N,00943.9122,E,0.00,359.37,130326,,,A,V
5936: 54294070,9439122
Delta latt/lon(min/100000): -9,-14
54
r (m): 2.257915,lat(cm): -166, lon(cm): -151
stack_usage: 652
$GNRMC,202545.000,A,5429.4070,N,00943.9122,E,0.00,359.37,130326,,,A,V
5937: 54294070,9439122
Delta latt/lon(min/100000): -9,-14
54
r (m): 2.257915,lat(cm): -166, lon(cm): -151
stack_usage: 652
$GNRMC,202546.000,A,5429.4070,N,00943.9122,E,0.00,359.37,130326,,,A,V
5938: 54294070,9439122
Delta latt/lon(min/100000): -9,-14
54
r (m): 2.257915,lat(cm): -166, lon(cm): -151
stack_usage: 652
$GNRMC,202547.000,A,5429.4070,N,00943.9122,E,0.00,359.37,130326,,,A,V
5939: 54294070,9439122
Delta latt/lon(min/100000): -9,-14
54
r (m): 2.257915,lat(cm): -166, lon(cm): -151
stack_usage: 652
$GNRMC,202548.000,A,5429.4070,N,00943.9122,E,0.94,162.69,130326,,,A,V
5940: 54294070,9439122
Delta latt/lon(min/100000): -9,-14
54
r (m): 2.257915,lat(cm): -166, lon(cm): -151
stack_usage: 652
$GNRMC,202549.000,A,5429.4070,N,00943.9122,E,0.00,359.37,130326,,,A,V
5941: 54294070,9439122
Delta latt/lon(min/100000): -9,-14
54
r (m): 2.257915,lat(cm): -166, lon(cm): -151
stack_usage: 652
$GNRMC,202550.000,A,5429.4070,N,00943.9122,E,0.00,359.37,130326,,,A,V
5942: 54294070,9439122
Delta latt/lon(min/100000): -9,-14
54
r (m): 2.257915,lat(cm): -166, lon(cm): -151
stack_usage: 652
$GNRMC,202551.000,A,5429.4070,N,00943.9122,E,0.00,359.37,130326,,,A,V
5943: 54294070,9439122
Delta latt/lon(min/100000): -9,-14
54
r (m): 2.257915,lat(cm): -166, lon(cm): -151
stack_usage: 652
$GNRMC,202552.000,A,5429.4070,N,00943.9122,E,0.00,359.37,130326,,,A,V
5944: 54294070,9439122
Delta latt/lon(min/100000): -9,-14
54
r (m): 2.257915,lat(cm): -166, lon(cm): -151
stack_usage: 652
$GNRMC,202553.000,A,5429.4070,N,00943.9122,E,0.00,359.37,130326,,,A,V
5945: 54294070,9439122
Delta latt/lon(min/100000): -9,-14
54
r (m): 2.257915,lat(cm): -166, lon(cm): -151
stack_usage: 652
$GNRMC,202554.000,A,5429.4070,N,00943.9122,E,0.81,162.69,130326,,,A,V
5946: 54294070,9439122
Delta latt/lon(min/100000): -9,-14
54
r (m): 2.257915,lat(cm): -166, lon(cm): -151
stack_usage: 652
$GNRMC,202555.000,A,5429.4072,N,00943.9148,E,0.79,162.69,130326,,,A,V
5947: 54294072,9439148
Delta latt/lon(min/100000): -7,12
54
r (m): 1.839868,lat(cm): -129, lon(cm): 129
stack_usage: 652
$GNRMC,202556.000,A,5429.4074,N,00943.9151,E,0.00,162.69,130326,,,A,V
5948: 54294074,9439151
Delta latt/lon(min/100000): -5,15
54
r (m): 1.876352,lat(cm): -92, lon(cm): 162
stack_usage: 652
$GNRMC,202557.000,A,5429.4078,N,00943.9153,E,0.00,162.69,130326,,,A,V
5949: 54294078,9439153
Delta latt/lon(min/100000): -1,17
54
r (m): 1.858778,lat(cm): -18, lon(cm): 183
stack_usage: 56waiting for GNSS...
waiting for GNSS...
waiting for GNSS...
waiting for GNSS...
waiting for GNSS...
stack_usage: 408
$GNRMC,202610.000,A,5429.4072,N,00943.9126,E,0.00,162.69,130326,,,A,V
6002: 54294072,9439126
Delta latt/lon(min/100000): 0,0
54
r (m): 0.000000,lat(cm): 0, lon(cm): 0
stack_usage: 580
$GNRMC,202610.000,A,5429.4072,N,00943.9126,E,0.00,162.69,130326,,,A,V
6002: 54294072,9439126
Delta latt/lon(min/100000): 0,0
54
r (m): 0.000000,lat(cm): 0, lon(cm): 0
stack_usage: 580
$GNRMC,202611.000,A,5429.4074,N,00943.9126,E,0.00,162.69,130326,,,A,V
6003: 54294074,9439126
Delta latt/lon(min/100000): 2,0
54
r (m): 0.370400,lat(cm): 37, lon(cm): 0
stack_usage: 652
$GNRMC,202612.000,A,5429.4073,N,00943.9123,E,0.00,162.69,130326,,,A,V
6004: 54294073,9439123
Delta latt/lon(min/100000): 1,-3
54
r (m): 0.375270,lat(cm): 18, lon(cm): -32
stack_usage: 652
$GNRMC,202613.000,A,5429.4073,N,00943.9123,E,0.00,162.69,130326,,,A,V
6005: 54294073,9439123
Delta latt/lon(min/100000): 1,-3
54
r (m): 0.375270,lat(cm): 18, lon(cm): -32
stack_usage: 652
$GNRMC,202614.000,A,5429.4073,N,00943.9123,E,1.19,162.69,130326,,,A,V
6006: 54294073,9439123
Delta latt/lon(min/100000): 1,-3
54
r (m): 0.375270,lat(cm): 18, lon(cm): -32
stack_usage: 652
$GNRMC,202615.000,A,5429.4078,N,00943.9124,E,0.92,162.69,130326,,,A,V
6007: 54294078,9439124
Delta latt/lon(min/100000): 6,-2
54
r (m): 1.132304,lat(cm): 111, lon(cm): -21
stack_usage: 652
$GNRMC,202616.000,A,5429.4079,N,00943.9124,E,0.00,162.69,130326,,,A,V
6008: 54294079,9439124
Delta latt/lon(min/100000): 7,-2
54
r (m): 1.314534,lat(cm): 129, lon(cm): -21
stack_usage: 652
$GNRMC,202617.000,A,5429.4081,N,00943.9125,E,0.00,162.69,130326,,,A,V
6009: 54294081,9439125
Delta latt/lon(min/100000): 9,-1
54
r (m): 1.670347,lat(cm): 166, lon(cm): -10
stack_usage: 652
$GNRMC,202618.000,A,5429.4082,N,00943.9124,E,0.00,162.69,130326,,,A,V
6010: 54294082,9439124
Delta latt/lon(min/100000): 10,-2
54
r (m): 1.864739,lat(cm): 185, lon(cm): -21
stack_usage: 652
$GNRMC,202619.000,A,5429.4082,N,00943.9124,E,0.00,162.69,130326,,,A,V
6011: 54294082,9439124
Delta latt/lon(min/100000): 10,-2
54
r (m): 1.864739,lat(cm): 185, lon(cm): -21
stack_usage: 652
$GNRMC,202620.000,A,5429.4082,N,00943.9124,E,0.00,162.69,130326,,,A,V
6012: 54294082,9439124
Delta latt/lon(min/100000): 10,-2
54
r (m): 1.864739,lat(cm): 185, lon(cm): -21
stack_usage: 652
$GNRMC,202621.000,A,5429.4082,N,00943.9124,E,0.00,162.69,130326,,,A,V
6013: 54294082,9439124
Delta latt/lon(min/100000): 10,-2
54
r (m): 1.864739,lat(cm): 185, lon(cm): -21
stack_usage: 652
$GNRMC,202622.000,A,5429.4082,N,00943.9124,E,0.00,162.69,130326,,,A,V
6014: 54294082,9439124
Delta latt/lon(min/100000): 10,-2
54
r (m): 1.864739,lat(cm): 185, lon(cm): -21
stack_usage: 652
$GNRMC,202623.000,A,5429.4082,N,00943.9124,E,0.00,162.69,130326,,,A,V
6015: 54294082,9439124
Delta latt/lon(min/100000): 10,-2
54
r (m): 1.864739,lat(cm): 185, lon(cm): -21
stack_usage: 652
$GNRMC,202624.000,A,5429.4082,N,00943.9124,E,0.00,162.69,130326,,,A,V
6016: 54294082,9439124
Delta latt/lon(min/100000): 10,-2
54
r (m): 1.864739,lat(cm): 185, lon(cm): -21
stack_usage: 652
$GNRMC,202625.000,A,5429.4082,N,00943.9124,E,0.00,162.69,130326,,,A,V
6017: 54294082,9439124
Delta latt/lon(min/100000): 10,-2
54
r (m): 1.864739,lat(cm): 185, lon(cm): -21
stack_usage: 652
$GNRMC,202626.000,A,5429.4082,N,00943.9124,E,0.00,162.69,130326,,,A,V
6018: 54294082,9439124
Delta latt/lon(min/100000): 10,-2
54
r (m): 1.864739,lat(cm): 185, lon(cm): -21
stack_usage: 652
$GNRMC,202627.000,A,5429.4082,N,00943.9124,E,0.00,162.69,130326,,,A,V
6019: 54294082,9439124
Delta latt/lon(min/100000): 10,-2
54
r (m): 1.864739,lat(cm): 185, lon(cm): -21
stack_usage: 652
$GNRMC,202628.000,A,5429.4082,N,00943.9124,E,1.18,81.06,130326,,,A,V
6020: 54294082,9439124
Delta latt/lon(min/100000): 10,-2
54
r (m): 1.864739,lat(cm): 185, lon(cm): -21
