stack_usage: 64waiting for GNSS...
waiting for GNSS...
waiting for GNSS...
waiting for GNSS...
stack_usage: 416
$GNRMC,165800.000,A,5429.4119,N,00943.9087,E,0.00,215.89,110326,,,A,V
34728: 54294119,9439087
Delta latt/lon(min/100000): 0,0
GPGSV 0: 3,1,12,02,85,280,28,01,49,275,25,08,48,179,25,32,41,097,24,0
GPGSV 1: 3,2,12,10,35,057,19,39,25,161,,14,24,303,19,27,22,157,,0
GPGSV 2: 3,3,12,22,20,319,,03,16,224,,24,06,019,,17,06,315,17,0
GPGSV 3: 
54
r (m): 0.000000,lat(cm): 0, lon(cm): 0
stack_usage: 588
$GNRMC,165800.000,A,5429.4119,N,00943.9087,E,0.00,215.89,110326,,,A,V
34728: 54294119,9439087
Delta latt/lon(min/100000): 0,0
GPGSV 0: 3,1,12,02,85,280,28,01,49,275,25,08,48,179,25,32,41,097,24,0
GPGSV 1: 3,2,12,10,35,057,19,39,25,161,,14,24,303,19,27,22,157,,0
GPGSV 2: 3,3,12,22,20,319,,03,16,224,,24,06,019,,17,06,315,17,0
GPGSV 3: 
54
r (m): 0.000000,lat(cm): 0, lon(cm): 0
stack_usage: 588
$GNRMC,165801.000,A,5429.4119,N,00943.9087,E,0.00,215.89,110326,,,A,V
34729: 54294119,9439087
Delta latt/lon(min/100000): 0,0
GPGSV 0: 3,1,12,02,85,280,28,01,49,275,25,08,48,179,26,32,41,097,24,0
GPGSV 1: 3,2,12,10,35,057,19,39,25,161,,14,24,303,20,27,22,157,,0
GPGSV 2: 3,3,12,22,20,319,,03,16,224,,24,06,019,,17,06,315,17,0
GPGSV 3: 
54
r (m): 0.000000,lat(cm): 0, lon(cm): 0
stack_usage: 588
$GNRMC,165802.000,A,5429.4119,N,00943.9087,E,0.00,215.89,110326,,,A,V
34730: 54294119,9439087
Delta latt/lon(min/100000): 0,0
GPGSV 0: 3,1,12,02,85,280,28,01,49,275,25,08,48,179,26,32,41,097,24,0
GPGSV 1: 3,2,12,10,34,057,19,39,25,161,,14,24,303,20,27,22,157,,0
GPGSV 2: 3,3,12,22,20,319,,03,16,224,,24,06,019,,17,06,315,17,0
GPGSV 3: 
54
r (m): 0.000000,lat(cm): 0, lon(cm): 0
stack_usage: 588
$GNRMC,165803.000,A,5429.4119,N,00943.9087,E,0.00,215.89,110326,,,A,V
34731: 54294119,9439087
Delta latt/lon(min/100000): 0,0
GPGSV 0: 3,1,12,02,85,280,28,01,49,275,24,08,48,179,25,32,41,097,24,0
GPGSV 1: 3,2,12,10,34,057,19,39,25,161,,14,24,303,19,27,22,157,,0
GPGSV 2: 3,3,12,22,20,319,,03,16,224,,24,06,019,,17,06,315,17,0
GPGSV 3: 
54
r (m): 0.000000,lat(cm): 0, lon(cm): 0
stack_usage: 588
$GNRMC,165804.000,A,5429.4119,N,00943.9087,E,0.00,215.89,110326,,,A,V
34732: 54294119,9439087
Delta latt/lon(min/100000): 0,0
GPGSV 0: 3,1,12,02,85,280,29,01,49,275,24,08,48,179,25,32,41,097,24,0
GPGSV 1: 3,2,12,10,34,057,19,39,25,161,,14,24,303,19,27,22,157,,0
GPGSV 2: 3,3,12,22,20,319,,03,16,224,,24,06,019,,17,06,315,17,0
GPGSV 3: 
54
r (m): 0.000000,lat(cm): 0, lon(cm): 0
stack_usage: 604
$GNRMC,165805.000,A,5429.4119,N,00943.9087,E,0.00,215.89,110326,,,A,V
34733: 54294119,9439087
Delta latt/lon(min/100000): 0,0
GPGSV 0: 3,1,12,02,85,280,29,01,49,275,24,08,48,179,25,32,41,097,24,0
GPGSV 1: 3,2,12,10,34,057,19,39,25,161,,14,24,303,20,27,22,157,,0
GPGSV 2: 3,3,12,22,20,319,,03,16,224,,24,06,019,,17,06,315,16,0
GPGSV 3: 
54
r (m): 0.000000,lat(cm): 0, lon(cm): 0
stack_usage: 620
$GNRMC,165806.000,A,5429.4119,N,00943.9087,E,0.00,215.89,110326,,,A,V
34734: 54294119,9439087
Delta latt/lon(min/100000): 0,0
GPGSV 0: 3,1,12,02,85,280,29,01,49,275,24,08,48,179,25,32,41,097,24,0
GPGSV 1: 3,2,12,10,34,057,19,39,25,161,,14,24,303,20,27,22,157,,0
GPGSV 2: 3,3,12,22,20,319,,03,16,224,,24,06,019,,17,06,315,16,0
GPGSV 3: 
54
r (m): 0.000000,lat(cm): 0, lon(cm): 0
stack_usage: 620
$GNRMC,165807.000,A,5429.4119,N,00943.9087,E,0.00,215.89,110326,,,A,V
34735: 54294119,9439087
Delta latt/lon(min/100000): 0,0
GPGSV 0: 3,1,12,02,85,280,28,01,49,275,23,08,48,179,24,32,41,097,23,0
GPGSV 1: 3,2,12,10,34,057,18,14,24,303,20,33,23,209,,27,22,157,,0
GPGSV 2: 3,3,12,22,20,319,,03,16,224,,24,06,019,,17,06,315,16,0
GPGSV 3: 
54
r (m): 0.000000,lat(cm): 0, lon(cm): 0
stack_usage: 620
$GNRMC,165808.000,A,5429.4119,N,00943.9087,E,1.69,35.03,110326,,,A,V
34736: 54294119,9439087
Delta latt/lon(min/100000): 0,0
GPGSV 0: 3,1,12,02,85,280,27,01,49,275,23,08,48,179,24,32,41,097,22,0
GPGSV 1: 3,2,12,10,34,057,18,14,24,303,20,33,23,209,,27,22,157,,0
GPGSV 2: 3,3,12,22,20,319,,03,16,224,,24,06,019,,17,06,315,16,0
GPGSV 3: 
54
r (m): 0.000000,lat(cm): 0, lon(cm): 0
stack_usage: 620
$GNRMC,165809.000,A,5429.4136,N,00943.9079,E,0.90,35.85,110326,,,A,V
34737: 54294136,9439079
Delta latt/lon(min/100000): 17,-8
GPGSV 0: 3,1,12,02,85,280,27,01,49,275,23,08,48,179,25,32,41,097,23,0
GPGSV 1: 3,2,12,10,34,057,19,14,24,303,20,33,23,209,,27,22,157,,0
GPGSV 2: 3,3,12,22,20,319,,03,16,224,,17,07,315,17,24,06,019,,0
GPGSV 3: 
54
r (m): 0.089242,lat(cm): 31, lon(cm): -8
stack_usage: 660
$GNRMC,165810.000,A,5429.4135,N,00943.9082,E,0.84,120.03,110326,,,A,V
34738: 54294135,9439082
Delta latt/lon(min/100000): 16,-5
GPGSV 0: 3,1,12,02,85,280,28,01,49,275,24,08,48,179,27,32,41,097,23,0
GPGSV 1: 3,2,12,10,34,057,20,14,24,303,21,33,23,209,,27,22,157,,0
GPGSV 2: 3,3,12,22,20,319,,03,16,224,,17,07,315,17,24,06,019,,0
GPGSV 3: 
54
r (m): 0.057476,lat(cm): 29, lon(cm): -5
stack_usage: 660
$GNRMC,165811.000,A,5429.4132,N,00943.9086,E,0.84,137.02,110326,,,A,V
34739: 54294132,9439086
Delta latt/lon(min/100000): 13,-1
GPGSV 0: 3,1,12,02,85,280,28,01,49,275,24,08,48,179,27,32,41,097,24,0
GPGSV 1: 3,2,12,10,34,057,20,14,24,303,21,33,23,209,,27,22,157,,0
GPGSV 2: 3,3,12,22,20,319,,03,16,224,,17,07,315,17,24,06,019,,0
GPGSV 3: 
54
r (m): 0.018592,lat(cm): 24, lon(cm): -1
stack_usage: 660
$GNRMC,165812.000,A,5429.4128,N,00943.9089,E,1.50,155.43,110326,,,A,V
34740: 54294128,9439089
Delta latt/lon(min/100000): 9,2
GPGSV 0: 3,1,12,02,85,280,27,01,49,275,22,08,48,179,26,32,41,097,23,0
GPGSV 1: 3,2,12,10,34,057,19,14,24,303,20,33,23,209,,27,22,157,,0
GPGSV 2: 3,3,12,22,20,319,,03,16,224,,17,07,315,17,24,06,019,,0
GPGSV 3: 
54
r (m): 0.024133,lat(cm): 16, lon(cm): 2
stack_usage: 660
$GNRMC,165813.000,A,5429.4123,N,00943.9089,E,1.60,179.04,110326,,,A,V
34741: 54294123,9439089
Delta latt/lon(min/100000): 4,2
GPGSV 0: 3,1,12,02,85,280,27,01,49,275,23,08,48,179,27,32,41,097,24,0
GPGSV 1: 3,2,12,10,34,057,19,14,24,303,20,33,23,209,,27,22,157,,0
GPGSV 2: 3,3,12,22,20,319,,03,16,224,,17,07,315,17,24,06,019,,0
GPGSV 3: 
54
r (m): 0.022248,lat(cm): 7, lon(cm): 2
stack_usage: 660
$GNRMC,165814.000,A,5429.4119,N,00943.9089,E,1.32,183.90,110326,,,A,V
34742: 54294119,9439089
Delta latt/lon(min/100000): 0,2
GPGSV 0: 3,1,12,02,85,280,28,01,49,275,23,08,48,179,27,32,41,097,25,0
GPGSV 1: 3,2,12,10,34,057,19,14,24,303,20,33,23,209,,27,22,157,,0
GPGSV 2: 3,3,12,22,20,319,,03,16,224,,17,07,315,17,24,06,019,,0
GPGSV 3: 
54
r (m): 0.021759,lat(cm): 0, lon(cm): 2
stack_usage: 660
$GNRMC,165815.000,A,5429.4120,N,00943.9090,E,0.00,183.90,110326,,,A,V
34743: 54294120,9439090
Delta latt/lon(min/100000): 1,3
GPGSV 0: 3,1,12,02,85,280,28,01,49,275,24,08,48,179,26,32,41,097,24,0
GPGSV 1: 3,2,12,10,34,057,19,14,24,303,21,33,23,209,,27,22,157,,0
GPGSV 2: 3,3,12,22,20,319,,03,16,224,,17,07,315,17,24,06,019,,0
GPGSV 3: 
54
r (m): 0.032659,lat(cm): 1, lon(cm): 3
stack_usage: 660
$GNRMC,165816.000,A,5429.4118,N,00943.9089,E,0.00,198.26,110326,,,A,V
34744: 54294118,9439089
Delta latt/lon(min/100000): -1,2
GPGSV 0: 3,1,12,02,85,280,27,01,49,275,23,08,48,179,25,32,41,097,24,0
GPGSV 1: 3,2,12,10,34,057,19,14,24,303,21,27,22,157,,22,20,319,,0
GPGSV 2: 3,3,12,03,16,224,,40,11,120,,17,07,315,16,24,06,018,,0
GPGSV 3: 
54
r (m): 0.021790,lat(cm): -1, lon(cm): 2
stack_usage: 660
$GNRMC,165817.000,A,5429.4116,N,00943.9089,E,0.95,178.76,110326,,,A,V
34745: 54294116,9439089
Delta latt/lon(min/100000): -3,2
GPGSV 0: 3,1,12,02,85,280,26,01,49,275,23,08,48,179,24,32,41,097,24,0
GPGSV 1: 3,2,12,10,34,057,18,14,24,303,21,27,22,157,,22,20,319,,0
GPGSV 2: 3,3,12,03,16,224,,40,11,120,,17,07,315,16,24,06,018,,0
GPGSV 3: 
54
r (m): 0.022036,lat(cm): -5, lon(cm): 2
stack_usage: 660
$GNRMC,165818.000,A,5429.4116,N,00943.9089,E,0.00,178.76,110326,,,A,V
34746: 54294116,9439089
Delta latt/lon(min/100000): -3,2
GPGSV 0: 3,1,12,02,85,280,27,01,49,275,23,08,48,179,25,32,41,097,24,0
GPGSV 1: 3,2,12,10,34,057,19,14,24,303,21,27,22,157,,22,20,319,,0
GPGSV 2: 3,3,12,03,16,224,,40,11,120,,17,07,315,16,24,06,018,,0
GPGSV 3: 
54
r (m): 0.022036,lat(cm): -5, lon(cm): 2
stack_usage: 660
$GNRMC,165819.000,A,5429.4116,N,00943.9089,E,0.00,178.76,110326,,,A,V
34747: 54294116,9439089
Delta latt/lon(min/100000): -3,2
GPGSV 0: 3,1,12,02,85,280,28,01,49,275,23,08,48,179,25,32,41,097,24,0
GPGSV 1: 3,2,12,10,34,057,19,14,24,303,22,27,21,157,,22,20,319,,0
GPGSV 2: 3,3,12,03,16,224,,40,11,120,,17,07,315,16,24,06,018,,0
GPGSV 3: 
54
r (m): 0.022036,lat(cm): -5, lon(cm): 2
stack_usage: 660
$GNRMC,165820.000,A,5429.4116,N,00943.9089,E,0.00,178.76,110326,,,A,V
34748: 54294116,9439089
Delta latt/lon(min/100000): -3,2
GPGSV 0: 3,1,12,02,85,280,28,01,49,275,24,08,48,179,25,32,41,097,24,0
GPGSV 1: 3,2,12,10,34,057,19,14,24,303,22,27,21,157,,22,20,319,,0
GPGSV 2: 3,3,12,03,16,224,,40,11,120,,17,07,315,17,24,06,018,,0
GPGSV 3: 
54
r (m): 0.022036,lat(cm): -5, lon(cm): 2
stack_usage: 660
$GNRMC,165821.000,A,5429.4116,N,00943.9089,E,0.00,178.76,110326,,,A,V
34749: 54294116,9439089
Delta latt/lon(min/100000): -3,2
GPGSV 0: 3,1,12,02,85,280,27,01,49,275,23,08,48,179,25,32,41,097,24,0
GPGSV 1: 3,2,12,10,34,057,19,14,24,303,21,27,21,157,,22,20,319,,0
GPGSV 2: 3,3,12,03,16,224,,40,11,120,,17,07,315,16,24,06,018,,0
GPGSV 3: 
54
r (m): 0.022036,lat(cm): -5, lon(cm): 2
stack_usage: 660
$GNRMC,165822.000,A,5429.4116,N,00943.9089,E,0.00,178.76,110326,,,A,V
34750: 54294116,9439089
Delta latt/lon(min/100000): -3,2
GPGSV 0: 3,1,12,02,85,280,27,01,49,275,24,08,48,179,25,32,41,097,24,0
GPGSV 1: 3,2,12,10,34,057,19,14,24,303,21,27,21,157,,22,20,319,,0
GPGSV 2: 3,3,12,03,16,224,,40,11,120,,17,07,315,16,24,06,018,,0
GPGSV 3: 
54
r (m): 0.022036,lat(cm): -5, lon(cm): 2
stack_usage: 660
$GNRMC,165823.000,A,5429.4116,N,00943.9089,E,0.00,178.76,110326,,,A,V
34751: 54294116,9439089
Delta latt/lon(min/100000): -3,2
GPGSV 0: 3,1,12,02,85,280,27,01,49,275,24,08,48,179,25,32,41,097,25,0
GPGSV 1: 3,2,12,10,34,057,19,14,24,303,22,27,21,157,,22,20,319,,0
GPGSV 2: 3,3,12,03,16,224,,40,11,120,,17,07,315,16,24,06,018,,0
GPGSV 3: 
54
r (m): 0.022036,lat(cm): -5, lon(cm): 2
stack_usage: 660
$GNRMC,165824.000,A,5429.4116,N,00943.9089,E,0.00,178.76,110326,,,A,V
34752: 54294116,9439089
Delta latt/lon(min/100000): -3,2
GPGSV 0: 3,1,12,02,85,280,27,01,49,275,23,08,48,179,25,32,41,096,24,0
GPGSV 1: 3,2,12,10,34,057,19,14,24,303,22,27,21,157,,22,20,319,,0
GPGSV 2: 3,3,12,03,16,224,,40,11,120,,17,07,315,16,24,06,018,,0
GPGSV 3: 
54
r (m): 0.022036,lat(cm): -5, lon(cm): 2
stack_usage: 660
$GNRMC,165825.000,A,5429.4116,N,00943.9089,E,0.00,178.76,110326,,,A,V
34753: 54294116,9439089
Delta latt/lon(min/100000): -3,2
GPGSV 0: 3,1,12,02,85,280,27,01,49,275,23,08,48,179,25,32,41,096,24,0
GPGSV 1: 3,2,12,10,34,057,18,14,24,303,22,27,21,157,,22,20,319,,0
GPGSV 2: 3,3,12,03,16,224,,44,10,118,,17,07,315,16,24,06,018,,0
GPGSV 3: 
54
r (m): 0.022036,lat(cm): -5, lon(cm): 2
stack_usage: 660
$GNRMC,165826.000,A,5429.4116,N,00943.9089,E,1.21,80.05,110326,,,A,V
34754: 54294116,9439089
Delta latt/lon(min/100000): -3,2
GPGSV 0: 3,1,12,02,85,280,27,01,49,275,23,08,48,179,25,32,41,096,24,0
GPGSV 1: 3,2,12,10,34,057,18,14,24,303,21,27,21,157,,22,20,319,,0
GPGSV 2: 3,3,12,03,16,224,,44,10,118,,17,07,315,16,24,06,018,,0
GPGSV 3: 
54
r (m): 0.022036,lat(cm): -5, lon(cm): 2
stack_usage: 660
$GNRMC,165827.000,A,5429.4116,N,00943.9089,E,0.00,178.76,110326,,,A,V
34755: 54294116,9439089
Delta latt/lon(min/100000): -3,2
GPGSV 0: 3,1,12,02,85,280,27,01,49,275,23,08,48,179,25,32,41,096,24,0
GPGSV 1: 3,2,12,10,34,057,18,14,24,303,21,27,21,157,,22,20,319,,0
GPGSV 2: 3,3,12,03,16,224,,44,10,118,,17,07,315,16,24,06,018,,0
GPGSV 3: 
54
r (m): 0.022036,lat(cm): -5, lon(cm): 2
stack_usage: 660
$GNRMC,165828.000,A,5429.4116,N,00943.9089,E,0.00,178.76,110326,,,A,V
34756: 54294116,9439089
Delta latt/lon(min/100000): -3,2
GPGSV 0: 3,1,12,02,85,280,27,01,49,275,23,08,48,179,25,32,41,096,24,0
GPGSV 1: 3,2,12,10,34,057,18,14,24,303,21,27,21,157,,22,20,319,,0
GPGSV 2: 3,3,12,03,16,224,,44,10,118,,17,07,315,17,24,06,018,,0
GPGSV 3: 
54
r (m): 0.022036,lat(cm): -5, lon(cm): 2
stack_usage: 660
$GNRMC,165829.000,A,5429.4116,N,00943.9089,E,0.00,178.76,110326,,,A,V
34757: 54294116,9439089
Delta latt/lon(min/100000): -3,2
GPGSV 0: 3,1,12,02,85,280,27,01,49,275,23,08,48,179,27,32,41,096,24,0
GPGSV 1: 3,2,12,10,34,057,18,14,24,303,22,27,21,157,,22,20,319,,0
GPGSV 2: 3,3,12,03,16,224,,44,10,118,,17,07,315,18,24,06,018,,0
GPGSV 3: 
54
r (m): 0.022036,lat(cm): -5, lon(cm): 2
stack_usage: 660
$GNRMC,165830.000,A,5429.4116,N,00943.9089,E,0.93,285.91,110326,,,A,V
34758: 54294116,9439089
Delta latt/lon(min/100000): -3,2
GPGSV 0: 3,1,12,02,85,280,26,01,49,275,23,08,48,179,26,32,41,096,24,0
GPGSV 1: 3,2,12,10,34,057,18,14,24,303,21,27,21,157,,22,20,319,,0
GPGSV 2: 3,3,12,03,16,224,,44,10,118,,17,07,315,18,24,06,018,,0
GPGSV 3: 
54
r (m): 0.022036,lat(cm): -5, lon(cm): 2
stack_usage: 660
$GNRMC,165831.000,A,5429.4116,N,00943.9089,E,0.00,178.76,110326,,,A,V
34759: 54294116,9439089
Delta latt/lon(min/100000): -3,2
GPGSV 0: 3,1,12,02,85,280,25,01,49,275,21,08,48,179,25,32,41,096,24,0
GPGSV 1: 3,2,12,10,34,057,18,14,24,303,20,27,21,157,,22,20,319,,0
GPGSV 2: 3,3,12,03,16,224,,44,10,118,,17,07,315,18,24,06,018,,0
GPGSV 3: 
54
r (m): 0.022036,lat(cm): -5, lon(cm): 2
stack_usage: 660
$GNRMC,165832.000,A,5429.4116,N,00943.9089,E,0.00,178.76,110326,,,A,V
34760: 54294116,9439089
Delta latt/lon(min/100000): -3,2
GPGSV 0: 3,1,12,02,85,280,26,01,49,275,22,08,48,179,26,32,41,096,24,0
GPGSV 1: 3,2,12,10,34,057,19,14,24,303,20,27,21,157,,22,20,319,,0
GPGSV 2: 3,3,12,03,16,224,,44,10,118,,17,07,315,18,24,06,018,,0
GPGSV 3: 
54
r (m): 0.022036,lat(cm): -5, lon(cm): 2
stack_usage: 660
$GNRMC,165833.000,A,5429.4116,N,00943.9089,E,0.00,178.76,110326,,,A,V
34761: 54294116,9439089
Delta latt/lon(min/100000): -3,2
GPGSV 0: 3,1,12,02,85,280,26,01,49,275,23,08,48,179,26,32,41,096,24,0
GPGSV 1: 3,2,12,10,34,057,20,14,24,303,21,27,21,157,,22,20,319,,0
GPGSV 2: 3,3,12,03,16,224,,44,10,118,,17,07,315,18,24,06,018,,0
GPGSV 3: 
54
r (m): 0.022036,lat(cm): -5, lon(cm): 2
stack_usage: 660
$GNRMC,165834.000,A,5429.4116,N,00943.9089,E,0.00,178.76,110326,,,A,V
34762: 54294116,9439089
Delta latt/lon(min/100000): -3,2
GPGSV 0: 3,1,12,02,85,280,26,01,49,275,23,08,48,179,26,32,41,096,24,0
GPGSV 1: 3,2,12,10,34,057,20,37,26,165,,14,24,303,21,27,21,157,,0
GPGSV 2: 3,3,12,22,20,319,,03,16,224,,17,07,315,18,24,06,018,,0
GPGSV 3: 
54
r (m): 0.022036,lat(cm): -5, lon(cm): 2
stack_usage: 660
$GNRMC,165835.000,A,5429.4116,N,00943.9089,E,0.00,178.76,110326,,,A,V
34763: 54294116,9439089
Delta latt/lon(min/100000): -3,2
GPGSV 0: 3,1,12,02,85,280,25,01,49,275,23,08,48,179,24,32,41,096,23,0
GPGSV 1: 3,2,12,10,34,057,19,37,26,165,,14,24,303,20,27,21,157,,0
GPGSV 2: 3,3,12,22,20,319,,03,16,224,,17,07,315,17,24,06,018,,0
GPGSV 3: 
54
r (m): 0.022036,lat(cm): -5, lon(cm): 2
stack_usage: 660
$GNRMC,165836.000,A,5429.4116,N,00943.9089,E,0.00,178.76,110326,,,A,V
34764: 54294116,9439089
Delta latt/lon(min/100000): -3,2
GPGSV 0: 3,1,12,02,85,280,25,01,49,275,24,08,48,179,24,32,41,096,23,0
GPGSV 1: 3,2,12,10,34,057,19,37,26,165,,14,24,303,20,27,21,157,,0
GPGSV 2: 3,3,12,22,20,319,,03,16,224,,17,07,315,17,24,06,018,,0
GPGSV 3: 
54
r (m): 0.022036,lat(cm): -5, lon(cm): 2
stack_usage: 660
$GNRMC,165837.000,A,5429.4116,N,00943.9089,E,0.00,178.76,110326,,,A,V
34765: 54294116,9439089
Delta latt/lon(min/100000): -3,2
GPGSV 0: 3,1,12,02,85,280,26,01,49,275,24,08,48,179,25,32,41,096,23,0
GPGSV 1: 3,2,12,10,34,057,19,37,26,165,,14,24,303,20,27,21,157,,0
GPGSV 2: 3,3,12,22,20,319,,03,16,224,,17,07,315,17,24,06,018,,0
GPGSV 3: 
54
r (m): 0.022036,lat(cm): -5, lon(cm): 2
stack_usage: 660
$GNRMC,165838.000,A,5429.4116,N,00943.9089,E,1.17,168.17,110326,,,A,V
34766: 54294116,9439089
Delta latt/lon(min/100000): -3,2
GPGSV 0: 3,1,12,02,85,280,26,01,49,275,24,08,48,179,25,32,41,096,23,0
GPGSV 1: 3,2,12,10,34,057,20,37,26,165,,14,24,303,20,27,21,157,,0
GPGSV 2: 3,3,12,22,20,319,,03,16,224,,17,07,315,17,24,06,018,,0
GPGSV 3: 
54
r (m): 0.022036,lat(cm): -5, lon(cm): 2
stack_usage: 660
$GNRMC,165839.000,A,5429.4116,N,00943.9089,E,0.00,178.76,110326,,,A,V
34767: 54294116,9439089
Delta latt/lon(min/100000): -3,2
GPGSV 0: 3,1,12,02,85,280,26,01,49,275,24,08,48,179,25,32,41,096,23,0
GPGSV 1: 3,2,12,10,34,057,20,37,26,165,,14,24,303,20,27,21,157,,0
GPGSV 2: 3,3,12,22,20,319,,03,16,224,,17,07,315,17,24,06,018,,0
GPGSV 3: 
54
r (m): 0.022036,lat(cm): -5, lon(cm): 2
stack_usage: 660
$GNRMC,165840.000,A,5429.4116,N,00943.9089,E,0.00,178.76,110326,,,A,V
34768: 54294116,9439089
Delta latt/lon(min/100000): -3,2
GPGSV 0: 3,1,12,02,85,280,26,01,49,275,24,08,48,179,25,32,41,096,23,0
GPGSV 1: 3,2,12,10,34,057,20,37,26,165,,14,24,303,20,27,21,157,,0
GPGSV 2: 3,3,12,22,20,319,15,03,16,224,,17,07,315,17,24,06,018,,0
GPGSV 3: 
54
r (m): 0.022036,lat(cm): -5, lon(cm): 2
stack_usage: 660
$GNRMC,165841.000,A,5429.4116,N,00943.9089,E,0.86,185.59,110326,,,A,V
34769: 54294116,9439089
Delta latt/lon(min/100000): -3,2
GPGSV 0: 3,1,12,02,85,280,27,01,49,275,24,08,48,179,25,32,41,096,23,0
GPGSV 1: 3,2,12,10,34,057,20,37,26,165,,14,24,303,21,27,21,157,,0
GPGSV 2: 3,3,12,22,20,319,18,03,16,224,,17,07,315,17,24,06,018,,0
GPGSV 3: 
54
r (m): 0.022036,lat(cm): -5, lon(cm): 2
stack_usage: 660
$GNRMC,165842.000,A,5429.4116,N,00943.9089,E,0.00,178.76,110326,,,A,V
34770: 54294116,9439089
Delta latt/lon(min/100000): -3,2
GPGSV 0: 3,1,12,02,85,280,27,01,49,275,24,08,48,179,25,32,41,096,23,0
GPGSV 1: 3,2,12,10,34,057,20,37,26,165,,14,24,303,21,27,21,157,,0
GPGSV 2: 3,3,12,22,20,319,18,03,16,224,,17,07,315,17,24,06,018,,0
GPGSV 3: 
54
r (m): 0.022036,lat(cm): -5, lon(cm): 2
stack_usage: 660
$GNRMC,165843.000,A,5429.4116,N,00943.9089,E,1.01,209.14,110326,,,A,V
34771: 54294116,9439089
Delta latt/lon(min/100000): -3,2
GPGSV 0: 3,1,12,02,85,280,26,01,49,275,23,08,48,179,24,32,41,096,23,0
GPGSV 1: 3,2,12,10,34,057,20,39,25,161,,14,24,303,21,27,21,157,,0
GPGSV 2: 3,3,12,22,20,319,17,03,16,224,,17,07,315,17,24,06,018,,0
GPGSV 3: 
54
r (m): 0.022036,lat(cm): -5, lon(cm): 2
stack_usage: 660
$GNRMC,165844.000,A,5429.4102,N,00943.9080,E,1.71,190.68,110326,,,A,V
34772: 54294102,9439080
Delta latt/lon(min/100000): -17,-7
GPGSV 0: 3,1,12,02,85,280,26,01,49,275,23,08,48,179,24,32,41,096,23,0
GPGSV 1: 3,2,12,10,34,057,20,39,25,161,,14,24,303,21,27,21,157,,0
GPGSV 2: 3,3,12,22,20,319,17,03,16stack_usage: 660
$GNRMC,170049.000,A,5429.4078,N,00943.9116,E,0.00,202.97,110326,,,A,V
38977: 54294078,9439116
Delta latt/lon(min/100000): -41,29
GPGSV 0: 3,1,11,02,86,279,31,01,50,275,23,08,47,178,22,32,42,095,26,0
GPGSV 1: 3,2,11,10,33,057,20,14,24,302,24,22,20,318,19,27,20,157,,0
GPGSV 2: 3,3,11,03,16,225,,17,08,315,16,24,06,018,,0
GPGSV 3: 
54
r (m): 0.319071,lat(cm): -75, lon(cm): 31
stack_usage: 660
$GNRMC,170050.000,A,5429.4078,N,00943.9116,E,0.84,196.44,110326,,,A,V
38978: 54294078,9439116
Delta latt/lon(min/100000): -41,29
GPGSV 0: 3,1,11,02,86,279,31,01,50,275,23,08,47,178,22,32,42,095,26,0
GPGSV 1: 3,2,11,10,33,057,20,14,24,302,24,22,20,318,19,27,20,157,,0
GPGSV 2: 3,3,11,03,16,225,,17,08,315,16,24,06,018,,0
GPGSV 3: 
54
r (m): 0.319071,lat(cm): -75, lon(cm): 31
stack_usage: 660
$GNRMC,170051.000,A,5429.4084,N,00943.9107,E,0.83,346.71,110326,,,A,V
38979: 54294084,9439107
Delta latt/lon(min/100000): -35,20
GPGSV 0: 3,1,11,02,86,279,31,01,50,275,23,08,47,178,22,32,42,095,26,0
GPGSV 1: 3,2,11,10,33,057,20,14,24,302,24,22,20,318,19,27,20,157,,0
GPGSV 2: 3,3,11,03,16,225,,17,08,315,16,24,06,018,,0
GPGSV 3: 
54
r (m): 0.221345,lat(cm): -64, lon(cm): 21
stack_usage: 660
$GNRMC,170052.000,A,5429.4084,N,00943.9109,E,0.00,346.71,110326,,,A,V
38980: 54294084,9439109
Delta latt/lon(min/100000): -35,22
GPGSV 0: 3,1,11,02,86,279,31,01,50,275,23,08,47,178,22,32,42,095,25,0
GPGSV 1: 3,2,11,10,33,057,20,14,24,302,24,22,20,318,20,27,20,157,,0
GPGSV 2: 3,3,11,03,16,225,,17,08,315,16,24,06,018,,0
GPGSV 3: 
54
r (m): 0.242768,lat(cm): -64, lon(cm): 23
stack_usage: 660
$GNRMC,170053.000,A,5429.4085,N,00943.9108,E,0.00,346.71,110326,,,A,V
38981: 54294085,9439108
Delta latt/lon(min/100000): -34,21
GPGSV 0: 3,1,11,02,86,279,31,01,50,275,23,08,47,178,22,32,42,095,25,0
GPGSV 1: 3,2,11,10,33,057,20,14,24,302,24,22,20,318,20,27,20,157,,0
GPGSV 2: 3,3,11,03,16,225,,17,08,315,16,24,06,018,,0
GPGSV 3: 
54
r (m): 0.231849,lat(cm): -62, lon(cm): 22
