$GNRMC,132142.000,A,5429.4097,N,00943.9060,E,1.31,280.66,180226,,,A,V*0A
$GPVTG,280.66,T,,M,1.31,N,2.43,K,A*31
$GPGGA,132142.000,5429.4097,N,00943.9060,E,1,5,1.76,27.6,M,45.0,M,,*6D
$GNGSA,A,3,16,18,26,29,,,,,,,,,2.02,1.76,0.99,1*00
$GNGSA,A,3,87,,,,,,,,,,,,2.02,1.76,0.99,2*0D
$GPGSV,4,1,14,26,70,239,21,18,67,156,21,16,46,295,26,29,37,081,18,0*64
$GPGSV,4,2,14,31,32,228,,05,26,051,,27,15,266,16,28,13,203,,0*65
$GPGSV,4,3,14,21,11,026,16,23,10,147,,25,05,137,,09,04,322,,0*6C
$GPGSV,4,4,14,04,01,294,,36,,,,0*5F
$GLGSV,2,1,07,78,73,266,28,87,49,046,26,77,33,162,,79,27,322,,1*76
$GLGSV,2,2,07,71,14,046,,70,13,348,,81,07,227,,1*4D
$GNGLL,5429.4097,N,00943.9060,E,132142.000,A,A*41
$GPTXT,01,01,02,ANTSTATUS=OPEN*2B
$GNRMC,132142.000,A,5429.4097,N,00943.9060,E,1.31,280.66,180226,,,A,V*0A
$GPVTG,280.66,T,,M,1.31,N,2.43,K,A*31
$GPGGA,132142.000,5429.4097,N,00943.9060,E,1,5,1.76,27.6,M,45.0,M,,*6D
$GNGSA,A,3,16,18,26,29,,,,,,,,,2.02,1.76,0.99,1*00
$GNGSA,A,3,87,,,,,,,,,,,,2.02,1.76,0.99,2*0D
$GPGSV,4,1,14,26,70,239,21,18,67,156,21,16,46,295,26,29,37,081,18,0*64
$GPGSV,4,2,14,31,32,228,,05,26,051,,27,15,266,16,28,13,203,,0*65
$GPGSV,4,3,14,21,11,026,16,23,10,147,,25,05,137,,09,04,322,,0*6C
$GPGSV,4,4,14,04,01,294,,36,,,,0*5F
$GLGSV,2,1,07,78,73,266,28,87,49,046,26,77,33,162,,79,27,322,,1*76
$GLGSV,2,2,07,71,14,046,,70,13,348,,81,07,227,,1*4D
$GNGLL,5429.4097,N,00943.9060,E,132142.000,A,A*41
$GPTXT,01,01,02,ANTSTATUS=OPEN*2B
$GNRMC,132142.000,A,5429.4097,N,00943.9060,E,1.31,280.66,180226,,,A,V*0A
$GPVTG,280.66,T,,M,1.31,N,2.43,K,A*31
$GPGGA,132142.000,5429.4097,N,00943.9060,E,1,5,1.76,27.6,M,45.0,M,,*6D
$GNGSA,A,3,16,18,26,29,,,,,,,,,2.02,1.76,0.99,1*00
$GNGSA,A,3,87,,,,,,,,,,,,2.02,1.76,0.99,2*0D
$GPGSV,4,1,14,26,70,239,21,18,67,156,21,16,46,295,26,29,37,081,18,0*64
$GPGSV,4,2,14,31,32,228,,05,26,051,,27,15,266,16,28,13,203,,0*65
$GPGSV,4,3,14,21,11,026,16,23,10,147,,25,05,137,,09,04,322,,0*6C
$GPGSV,4,4,14,04,01,294,,36,,,,0*5F
$GLGSV,2,1,07,78,73,266,28,87,49,046,26,77,33,162,,79,27,322,,1*76
$GLGSV,2,2,07,71,14,046,,70,13,348,,81,07,227,,1*4D
$GNGLL,5429.4097,N,00943.9060,E,132142.000,A,A*41
$GPTXT,01,01,02,ANTSTATUS=OPEN*2B
$GNRMC,132142.000,A,5429.4097,N,00943.9060,E,1.31,280.66,180226,,,A,V*0A
$GPVTG,280.66,T,,M,1.31,N,2.43,K,A*31
$GPGGA,132142.000,5429.4097,N,00943.9060,E,1,5,1.76,27.6,M,45.0,M,,*6D
$GNGSA,A,3,16,18,26,29,,,,,,,,,2.02,1.76,0.99,1*00
$GNGSA,A,3,87,,,,,,,,,,,,2.02,1.76,0.99,2*0D
$GPGSV,4,1,14,26,70,239,21,18,67,156,21,16,46,295,26,29,37,081,18,0*64
$GPGSV,4,2,14,31,32,228,,05,26,051,,27,15,266,16,28,13,203,,0*65
$GPGSV,4,3,14,21,11,026,16,23,10,147,,25,05,137,,09,04,322,,0*6C
$GPGSV,4,4,14,04,01,294,,36,,,,0*5F
$GLGSV,2,1,07,78,73,266,28,87,49,046,26,77,33,162,,79,27,322,,1*76
$GLGSV,2,2,07,71,14,046,,70,13,348,,81,07,227,,1*4D
$GNGLL,5429.4097,N,00943.9060,E,132142.000,A,A*41
$GPTXT,01,01,02,ANTSTATUS=OPEN*2B
*******************************
$GNRMC,132143.000,A,5429.4097,N,00943.9060,E,0.00,153.26,180226,,,A,V*01
*******************************
$GNRMC,132143.000,A,5429.4097,N,00943.9060,E,0.00,153.26,180226,,,A,V*01
$GPVTG,153.26,T,,M,0.00,N,0.00,K,A*3E
$GPGGA,132143.000,5429.4097,N,00943.9060,E,1,5,1.76,27.6,M,45.0,M,,*6C
$GNGSA,A,3,16,18,26,29,,,,,,,,,2.02,1.76,0.99,1*00
$GNGSA,A,3,87,,,,,,,,,,,,2.02,1.76,0.99,2*0D
$GPGSV,4,1,14,26,70,239,21,18,67,156,21,16,46,295,26,29,37,081,18,0*64
$GPGSV,4,2,14,31,32,228,,05,26,051,16,27,15,266,16,28,13,203,,0*62
$GPGSV,4,3,14,21,11,026,16,23,10,147,,25,05,137,,09,04,322,,0*6C
$GPGSV,4,4,14,04,01,294,,36,,,,0*5F
$GLGSV,2,1,07,78,73,266,27,87,49,046,26,77,33,162,,79,27,322,,1*79
$GLGSV,2,2,07,71,14,046,,70,13,348,,81,07,227,,1*4D
$GNGLL,5429.4097,N,00943.9060,E,132143.000,A,A*40
$GPTXT,01,01,02,ANTSTATUS=OPEN*2B
$GNRMC,132143.000,A,5429.4097,N,00943.9060,E,0.00,153.26,180226,,,A,V*01
$GPVTG,153.26,T,,M,0.00,N,0.00,K,A*3E
$GPGGA,132143.000,5429.4097,N,00943.9060,E,1,5,1.76,27.6,M,45.0,M,,*6C
$GNGSA,A,3,16,18,26,29,,,,,,,,,2.02,1.76,0.99,1*00
$GNGSA,A,3,87,,,,,,,,,,,,2.02,1.76,0.99,2*0D
$GPGSV,4,1,14,26,70,239,21,18,67,156,21,16,46,295,26,29,37,081,18,0*64
$GPGSV,4,2,14,31,32,228,,05,26,051,16,27,15,266,16,28,13,203,,0*62
$GPGSV,4,3,14,21,11,026,16,23,10,147,,25,05,137,,09,04,322,,0*6C
$GPGSV,4,4,14,04,01,294,,36,,,,0*5F
$GLGSV,2,1,07,78,73,266,27,87,49,046,26,77,33,162,,79,27,322,,1*79
$GLGSV,2,2,07,71,14,046,,70,13,348,,81,07,227,,1*4D
$GNGLL,5429.4097,N,00943.9060,E,132143.000,A,A*40
$GPTXT,01,01,02,ANTSTATUS=OPEN*2B
$GNRMC,132143.000,A,5429.4097,N,00943.9060,E,0.00,153.26,180226,,,A,V*01
$GPVTG,153.26,T,,M,0.00,N,0.00,K,A*3E
$GPGGA,132143.000,5429.4097,N,00943.9060,E,1,5,1.76,27.6,M,45.0,M,,*6C
$GNGSA,A,3,16,18,26,29,,,,,,,,,2.02,1.76,0.99,1*00
$GNGSA,A,3,87,,,,,,,,,,,,2.02,1.76,0.99,2*0D
$GPGSV,4,1,14,26,70,239,21,18,67,156,21,16,46,295,26,29,37,081,18,0*64
$GPGSV,4,2,14,31,32,228,,05,26,051,16,27,15,266,16,28,13,203,,0*62
$GPGSV,4,3,14,21,11,026,16,23,10,147,,25,05,137,,09,04,322,,0*6C
$GPGSV,4,4,14,04,01,294,,36,,,,0*5F
$GLGSV,2,1,07,78,73,266,27,87,49,046,26,77,33,162,,79,27,322,,1*79
$GLGSV,2,2,07,71,14,046,,70,13,348,,81,07,227,,1*4D
$GNGLL,5429.4097,N,00943.9060,E,132143.000,A,A*40
$GPTXT,01,01,02,ANTSTATUS=OPEN*2B
$GNRMC,132143.000,A,5429.4097,N,00943.9060,E,0.00,153.26,180226,,,A,V*01
$GPVTG,153.26,T,,M,0.00,N,0.00,K,A*3E
$GPGGA,132143.000,5429.4097,N,00943.9060,E,1,5,1.76,27.6,M,45.0,M,,*6C
$GNGSA,A,3,16,18,26,29,,,,,,,,,2.02,1.76,0.99,1*00
$GNGSA,A,3,87,,,,,,,,,,,,2.02,1.76,0.99,2*0D
$GPGSV,4,1,14,26,70,239,21,18,67,156,21,16,46,295,26,29,37,081,18,0*64
$GPGSV,4,2,14,31,32,228,,05,26,051,16,27,15,266,16,28,13,203,,0*62
$GPGSV,4,3,14,21,11,026,16,23,10,147,,25,05,137,,09,04,322,,0*6C
$GPGSV,4,4,14,04,01,294,,36,,,,0*5F
$GLGSV,2,1,07,78,73,266,27,87,49,046,26,77,33,162,,79,27,322,,1*79
$GLGSV,2,2,07,71,14,046,,70,13,348,,81,07,227,,1*4D
$GNGLL,5429.4097,N,00943.9060,E,132143.000,A,A*40
$GPTXT,01,01,02,ANTSTATUS=OPEN*2B
$GNRMC,132143.000,A,5429.4097,N,00943.9060,E,0.00,153.26,180226,,,A,V*01
$GPVTG,153.26,T,,M,0.00,N,0.00,K,A*3E
$GPGGA,132143.000,5429.4097,N,00943.9060,E,1,5,1.76,27.6,M,45.0,M,,*6C
$GNGSA,A,3,16,18,26,29,,,,,,,,,2.02,1.76,0.99,1*00
$GNGSA,A,3,87,,,,,,,,,,,,2.02,1.76,0.99,2*0D
$GPGSV,4,1,14,26,70,239,21,18,67,156,21,16,46,295,26,29,37,081,18,0*64
$GPGSV,4,2,14,31,32,228,,05,26,051,16,27,15,266,16,28,13,203,,0*62
$GPGSV,4,3,14,21,11,026,16,23,10,147,,25,05,137,,09,04,322,,0*6C
$GPGSV,4,4,14,04,01,294,,36,,,,0*5F
$GLGSV,2,1,07,78,73,266,27,87,49,046,26,77,33,162,,79,27,322,,1*79
$GLGSV,2,2,07,71,14,046,,70,13,348,,81,07,227,,1*4D
$GNGLL,5429.4097,N,00943.9060,E,132143.000,A,A*40
$GPTXT,01,01,02,ANTSTATUS=OPEN*2B
$GNRMC,132143.000,A,5429.4097,N,00943.9060,E,0.00,153.26,180226,,,A,V*01
$GPVTG,153.26,T,,M,0.00,N,0.00,K,A*3E
$GPGGA,132143.000,5429.4097,N,00943.9060,E,1,5,1.76,27.6,M,45.0,M,,*6C
$GNGSA,A,3,16,18,26,29,,,,,,,,,2.02,1.76,0.99,1*00
$GNGSA,A,3,87,,,,,,,,,,,,2.02,1.76,0.99,2*0D
$GPGSV,4,1,14,26,70,239,21,18,67,156,21,16,46,295,26,29,37,081,18,0*64
$GPGSV,4,2,14,31,32,228,,05,26,051,16,27,15,266,16,28,13,203,,0*62
$GPGSV,4,3,14,21,11,026,16,23,10,147,,25,05,137,,09,04,322,,0*6C
$GPGSV,4,4,14,04,01,294,,36,,,,0*5F
$GLGSV,2,1,07,78,73,266,27,87,49,046,26,77,33,162,,79,27,322,,1*79
$GLGSV,2,2,07,71,14,046,,70,13,348,,81,07,227,,1*4D
$GNGLL,5429.4097,N,00943.9060,E,132143.000,A,A*40
$GPTXT,01,01,02,ANTSTATUS=OPEN*2B
$GNRMC,132143.000,A,5429.4097,N,00943.9060,E,0.00,153.26,180226,,,A,V*01
$GPVTG,153.26,T,,M,0.00,N,0.00,K,A*3E
$GPGGA,132143.000,5429.4097,N,00943.9060,E,1,5,1.76,27.6,M,45.0,M,,*6C
$GNGSA,A,3,16,18,26,29,,,,,,,,,2.02,1.76,0.99,1*00
$GNGSA,A,3,87,,,,,,,,,,,,2.02,1.76,0.99,2*0D
$GPGSV,4,1,14,26,70,239,21,18,67,156,21,16,46,295,26,29,37,081,18,0*64
$GPGSV,4,2,14,31,32,228,,05,26,051,16,27,15,266,16,28,13,203,,0*62
$GPGSV,4,3,14,21,11,026,16,23,10,147,,25,05,137,,09,04,322,,0*6C
$GPGSV,4,4,14,04,01,294,,36,,,,0*5F
$GLGSV,2,1,07,78,73,266,27,87,49,046,26,77,33,162,,79,27,322,,1*79
$GLGSV,2,2,07,71,14,046,,70,13,348,,81,07,227,,1*4D
$GNGLL,5429.4097,N,00943.9060,E,132143.000,A,A*40
$GPTXT,01,01,02,ANTSTATUS=OPEN*2B
$GNRMC,132143.000,A,5429.4097,N,00943.9060,E,0.00,153.26,180226,,,A,V*01
$GPVTG,153.26,T,,M,0.00,N,0.00,K,A*3E
$GPGGA,132143.000,5429.4097,N,00943.9060,E,1,5,1.76,27.6,M,45.0,M,,*6C
$GNGSA,A,3,16,18,26,29,,,,,,,,,2.02,1.76,0.99,1*00
$GNGSA,A,3,87,,,,,,,,,,,,2.02,1.76,0.99,2*0D
$GPGSV,4,1,14,26,70,239,21,18,67,156,21,16,46,295,26,29,37,081,18,0*64
$GPGSV,4,2,14,31,32,228,,05,26,051,16,27,15,266,16,28,13,203,,0*62
$GPGSV,4,3,14,21,11,026,16,23,10,147,,25,05,137,,09,04,322,,0*6C
$GPGSV,4,4,14,04,01,294,,36,,,,0*5F
$GLGSV,2,1,07,78,73,266,27,87,49,046,26,77,33,162,,79,27,322,,1*79
$GLGSV,2,2,07,71,14,046,,70,13,348,,81,07,227,,1*4D
$GNGLL,5429.4097,N,00943.9060,E,132143.000,A,A*40
$GPTXT,01,01,02,ANTSTATUS=OPEN*2B
$GNRMC,132143.000,A,5429.4097,N,00943.9060,E,0.00,153.26,180226,,,A,V*01
$GPVTG,153.26,T,,M,0.00,N,0.00,K,A*3E
$GPGGA,132143.000,5429.4097,N,00943.9060,E,1,5,1.76,27.6,M,45.0,M,,*6C
$GNGSA,A,3,16,18,26,29,,,,,,,,,2.02,1.76,0.99,1*00
$GNGSA,A,3,87,,,,,,,,,,,,2.02,1.76,0.99,2*0D
$GPGSV,4,1,14,26,70,239,21,18,67,156,21,16,46,295,26,29,37,081,18,0*64
$GPGSV,4,2,14,31,32,228,,05,26,051,16,27,15,266,16,28,13,203,,0*62
$GPGSV,4,3,14,21,11,026,16,23,10,147,,25,05,137,,09,04,322,,0*6C
$GPGSV,4,4,14,04,01,294,,36,,,,0*5F
$GLGSV,2,1,07,78,73,266,27,87,49,046,26,77,33,162,,79,27,322,,1*79
$GLGSV,2,2,07,71,14,046,,70,13,348,,81,07,227,,1*4D
$GNGLL,5429.4097,N,00943.9060,E,132143.000,A,A*40
$GPTXT,01,01,02,ANTSTATUS=OPEN*2B
$GNRMC,132143.000,A,5429.4097,N,00943.9060,E,0.00,153.26,180226,,,A,V*01
$GPVTG,153.26,T,,M,0.00,N,0.00,K,A*3E
$GPGGA,132143.000,5429.4097,N,00943.9060,E,1,5,1.76,27.6,M,45.0,M,,*6C
$GNGSA,A,3,16,18,26,29,,,,,,,,,2.02,1.76,0.99,1*00
$GNGSA,A,3,87,,,,,,,,,,,,2.02,1.76,0.99,2*0D
$GPGSV,4,1,14,26,70,239,21,18,67,156,21,16,46,295,26,29,37,081,18,0*64
$GPGSV,4,2,14,31,32,228,,05,26,051,16,27,15,266,16,28,13,203,,0*62
$GPGSV,4,3,14,21,11,026,16,23,10,147,,25,05,137,,09,04,322,,0*6C
$GPGSV,4,4,14,04,01,294,,36,,,,0*5F
$GLGSV,2,1,07,78,73,266,27,87,49,046,26,77,33,162,,79,27,322,,1*79
$GLGSV,2,2,07,71,14,046,,70,13,348,,81,07,227,,1*4D
$GNGLL,5429.4097,N,00943.9060,E,132143.000,A,A*40
$GPTXT,01,01,02,ANTSTATUS=OPEN*2B
*******************************
$GNRMC,132144.000,A,5429.4097,N,00943.9060,E,0.00,153.26,180226,,,A,V*06
*******************************
$GNRMC,132144.000,A,5429.4097,N,00943.9060,E,0.00,153.26,180226,,,A,V*06
$GPVTG,153.26,T,,M,0.00,N,0.00,K,A*3E
$GPGGA,132144.000,5429.4097,N,00943.9060,E,1,5,1.76,27.6,M,45.0,M,,*6B
$GNGSA,A,3,16,18,26,29,,,,,,,,,2.02,1.76,0.99,1*00
$GNGSA,A,3,87,,,,,,,,,,,,2.02,1.76,0.99,2*0D
$GPGSV,4,1,14,26,70,239,21,18,67,156,21,16,46,295,26,29,37,081,18,0*64
$GPGSV,4,2,14,31,32,228,,05,26,051,17,27,15,266,16,28,13,203,,0*63
$GPGSV,4,3,14,21,11,026,15,23,10,147,,25,05,137,,09,04,322,,0*6F
$GPGSV,4,4,14,04,01,294,,38,,,,0*51
$GLGSV,2,1,07,78,73,266,27,87,49,046,26,77,33,162,,79,27,322,,1*79
$GLGSV,2,2,07,71,14,046,,70,13,348,20,81,07,227,,1*4F
$GNGLL,5429.4097,N,00943.9060,E,132144.000,A,A*47
$GPTXT,01,01,02,ANTSTATUS=OPEN*2B
$GNRMC,132144.000,A,5429.4097,N,00943.9060,E,0.00,153.26,180226,,,A,V*06
$GPVTG,153.26,T,,M,0.00,N,0.00,K,A*3E
$GPGGA,132144.000,5429.4097,N,00943.9060,E,1,5,1.76,27.6,M,45.0,M,,*6B
$GNGSA,A,3,16,18,26,29,,,,,,,,,2.02,1.76,0.99,1*00
$GNGSA,A,3,87,,,,,,,,,,,,2.02,1.76,0.99,2*0D
$GPGSV,4,1,14,26,70,239,21,18,67,156,21,16,46,295,26,29,37,081,18,0*64
$GPGSV,4,2,14,31,32,228,,05,26,051,17,27,15,266,16,28,13,203,,0*63
$GPGSV,4,3,14,21,11,026,15,23,10,147,,25,05,137,,09,04,322,,0*6F
$GPGSV,4,4,14,04,01,294,,38,,,,0*51
$GLGSV,2,1,07,78,73,266,27,87,49,046,26,77,33,162,,79,27,322,,1*79
$GLGSV,2,2,07,71,14,046,,70,13,348,20,81,07,227,,1*4F
$GNGLL,5429.4097,N,00943.9060,E,132144.000,A,A*47
$GPTXT,01,01,02,ANTSTATUS=OPEN*2B
$GNRMC,132144.000,A,5429.4097,N,00943.9060,E,0.00,153.26,180226,,,A,V*06
$GPVTG,153.26,T,,M,0.00,N,0.00,K,A*3E
$GPGGA,132144.000,5429.4097,N,00943.9060,E,1,5,1.76,27.6,M,45.0,M,,*6B
$GNGSA,A,3,16,18,26,29,,,,,,,,,2.02,1.76,0.99,1*00
$GNGSA,A,3,87,,,,,,,,,,,,2.02,1.76,0.99,2*0D
$GPGSV,4,1,14,26,70,239,21,18,67,156,21,16,46,295,26,29,37,081,18,0*64
$GPGSV,4,2,14,31,32,228,,05,26,051,17,27,15,266,16,28,13,203,,0*63
$GPGSV,4,3,14,21,11,026,15,23,10,147,,25,05,137,,09,04,322,,0*6F
$GPGSV,4,4,14,04,01,294,,38,,,,0*51
$GLGSV,2,1,07,78,73,266,27,87,49,046,26,77,33,162,,79,27,322,,1*79
$GLGSV,2,2,07,71,14,046,,70,13,348,20,81,07,227,,1*4F
$GNGLL,5429.4097,N,00943.9060,E,132144.000,A,A*47
$GPTXT,01,01,02,ANTSTATUS=OPEN*2B
$GNRMC,132144.000,A,5429.4097,N,00943.9060,E,0.00,153.26,180226,,,A,V*06
$GPVTG,153.26,T,,M,0.00,N,0.00,K,A*3E
$GPGGA,132144.000,5429.4097,N,00943.9060,E,1,5,1.76,27.6,M,45.0,M,,*6B
$GNGSA,A,3,16,18,26,29,,,,,,,,,2.02,1.76,0.99,1*00
$GNGSA,A,3,87,,,,,,,,,,,,2.02,1.76,0.99,2*0D
$GPGSV,4,1,14,26,70,239,21,18,67,156,21,16,46,295,26,29,37,081,18,0*64
$GPGSV,4,2,14,31,32,228,,05,26,051,17,27,15,266,16,28,13,203,,0*63
$GPGSV,4,3,14,21,11,026,15,23,10,147,,25,05,137,,09,04,322,,0*6F
$GPGSV,4,4,14,04,01,294,,38,,,,0*51
$GLGSV,2,1,07,78,73,266,27,87,49,046,26,77,33,162,,79,27,322,,1*79
$GLGSV,2,2,07,71,14,046,,70,13,348,20,81,07,227,,1*4F
$GNGLL,5429.4097,N,00943.9060,E,132144.000,A,A*47
$GPTXT,01,01,02,ANTSTATUS=OPEN*2B
$GNRMC,132144.000,A,5429.4097,N,00943.9060,E,0.00,153.26,180226,,,A,V*06
$GPVTG,153.26,T,,M,0.00,N,0.00,K,A*3E
$GPGGA,132144.000,5429.4097,N,00943.9060,E,1,5,1.76,27.6,M,45.0,M,,*6B
$GNGSA,A,3,16,18,26,29,,,,,,,,,2.02,1.76,0.99,1*00
$GNGSA,A,3,87,,,,,,,,,,,,2.02,1.76,0.99,2*0D
$GPGSV,4,1,14,26,70,239,21,18,67,156,21,16,46,295,26,29,37,081,18,0*64
$GPGSV,4,2,14,31,32,228,,05,26,051,17,27,15,266,16,28,13,203,,0*63
$GPGSV,4,3,14,21,11,026,15,23,10,147,,25,05,137,,09,04,322,,0*6F
$GPGSV,4,4,14,04,01,294,,38,,,,0*51
$GLGSV,2,1,07,78,73,266,27,87,49,046,26,77,33,162,,79,27,322,,1*79
$GLGSV,2,2,07,71,14,046,,70,13,348,20,81,07,227,,1*4F
$GNGLL,5429.4097,N,00943.9060,E,132144.000,A,A*47
$GPTXT,01,01,02,ANTSTATUS=OPEN*2B
$GNRMC,132144.000,A,5429.4097,N,00943.9060,E,0.00,153.26,180226,,,A,V*06
$GPVTG,153.26,T,,M,0.00,N,0.00,K,A*3E
$GPGGA,132144.000,5429.4097,N,00943.9060,E,1,5,1.76,27.6,M,45.0,M,,*6B
$GNGSA,A,3,16,18,26,29,,,,,,,,,2.02,1.76,0.99,1*00
$GNGSA,A,3,87,,,,,,,,,,,,2.02,1.76,0.99,2*0D
$GPGSV,4,1,14,26,70,239,21,18,67,156,21,16,46,295,26,29,37,081,18,0*64
$GPGSV,4,2,14,31,32,228,,05,26,051,17,27,15,266,16,28,13,203,,0*63
$GPGSV,4,3,14,21,11,026,15,23,10,147,,25,05,137,,09,04,322,,0*6F
$GPGSV,4,4,14,04,01,294,,38,,,,0*51
$GLGSV,2,1,07,78,73,266,27,87,49,046,26,77,33,162,,79,27,322,,1*79
$GLGSV,2,2,07,71,14,046,,70,13,348,20,81,07,227,,1*4F
$GNGLL,5429.4097,N,00943.9060,E,132144.000,A,A*47
$GPTXT,01,01,02,ANTSTATUS=OPEN*2B
$GNRMC,132144.000,A,5429.4097,N,00943.9060,E,0.00,153.26,180226,,,A,V*06
$GPVTG,153.26,T,,M,0.00,N,0.00,K,A*3E
$GPGGA,132144.000,5429.4097,N,00943.9060,E,1,5,1.76,27.6,M,45.0,M,,*6B
$GNGSA,A,3,16,18,26,29,,,,,,,,,2.02,1.76,0.99,1*00
$GNGSA,A,3,87,,,,,,,,,,,,2.02,1.76,0.99,2*0D
$GPGSV,4,1,14,26,70,239,21,18,67,156,21,16,46,295,26,29,37,081,18,0*64
$GPGSV,4,2,14,31,32,228,,05,26,051,17,27,15,266,16,28,13,203,,0*63
$GPGSV,4,3,14,21,11,026,15,23,10,147,,25,05,137,,09,04,322,,0*6F
$GPGSV,4,4,14,04,01,294,,38,,,,0*51
$GLGSV,2,1,07,78,73,266,27,87,49,046,26,77,33,162,,79,27,322,,1*79
$GLGSV,2,2,07,71,14,046,,70,13,348,20,81,07,227,,1*4F
$GNGLL,5429.4097,N,00943.9060,E,132144.000,A,A*47
$GPTXT,01,01,02,ANTSTATUS=OPEN*2B
$GNRMC,132144.000,A,5429.4097,N,00943.9060,E,0.00,153.26,180226,,,A,V*06
$GPVTG,153.26,T,,M,0.00,N,0.00,K,A*3E
$GPGGA,132144.000,5429.4097,N,00943.9060,E,1,5,1.76,27.6,M,45.0,M,,*6B
$GNGSA,A,3,16,18,26,29,,,,,,,,,2.02,1.76,0.99,1*00
$GNGSA,A,3,87,,,,,,,,,,,,2.02,1.76,0.99,2*0D
$GPGSV,4,1,14,26,70,239,21,18,67,156,21,16,46,295,26,29,37,081,18,0*64
$GPGSV,4,2,14,31,32,228,,05,26,051,17,27,15,266,16,28,13,203,,0*63
$GPGSV,4,3,14,21,11,026,15,23,10,147,,25,05,137,,09,04,322,,0*6F
$GPGSV,4,4,14,04,01,294,,38,,,,0*51
$GLGSV,2,1,07,78,73,266,27,87,49,046,26,77,33,162,,79,27,322,,1*79
$GLGSV,2,2,07,71,14,046,,70,13,348,20,81,07,227,,1*4F
$GNGLL,5429.4097,N,00943.9060,E,132144.000,A,A*47
$GPTXT,01,01,02,ANTSTATUS=OPEN*2B
$GNRMC,132144.000,A,5429.4097,N,00943.9060,E,0.00,153.26,180226,,,A,V*06
$GPVTG,153.26,T,,M,0.00,N,0.00,K,A*3E
$GPGGA,132144.000,5429.4097,N,00943.9060,E,1,5,1.76,27.6,M,45.0,M,,*6B
$GNGSA,A,3,16,18,26,29,,,,,,,,,2.02,1.76,0.99,1*00
$GNGSA,A,3,87,,,,,,,,,,,,2.02,1.76,0.99,2*0D
$GPGSV,4,1,14,26,70,239,21,18,67,156,21,16,46,295,26,29,37,081,18,0*64
$GPGSV,4,2,14,31,32,228,,05,26,051,17,27,15,266,16,28,13,203,,0*63
$GPGSV,4,3,14,21,11,026,15,23,10,147,,25,05,137,,09,04,322,,0*6F
$GPGSV,4,4,14,04,01,294,,38,,,,0*51
$GLGSV,2,1,07,78,73,266,27,87,49,046,26,77,33,162,,79,27,322,,1*79
$GLGSV,2,2,07,71,14,046,,70,13,348,20,81,07,227,,1*4F
$GNGLL,5429.4097,N,00943.9060,E,132144.000,A,A*47
$GPTXT,01,01,02,ANTSTATUS=OPEN*2B
*******************************
$GNRMC,132145.000,A,5429.4097,N,00943.9060,E,0.00,153.26,180226,,,A,V*07
*******************************
$GNRMC,132145.000,A,5429.4097,N,00943.9060,E,0.00,153.26,180226,,,A,V*07
$GPVTG,153.26,T,,M,0.00,N,0.00,K,A*3E
$GPGGA,132145.000,5429.4097,N,00943.9060,E,1,4,1.93,27.6,M,45.0,M,,*60
$GNGSA,A,3,16,18,26,,,,,,,,,,2.18,1.93,1.00,1*0A
$GNGSA,A,3,87,,,,,,,,,,,,2.18,1.93,1.00,2*0C
$GPGSV,4,1,14,26,70,239,21,18,67,156,21,16,46,295,26,29,37,081,16,0*6A
$GPGSV,4,2,14,31,32,228,,05,26,051,17,27,15,266,16,28,13,203,,0*63
$GPGSV,4,3,14,21,11,026,15,23,10,147,,25,05,137,,09,04,322,,0*6F
$GPGSV,4,4,14,04,01,294,,38,,,,0*51
$GLGSV,2,1,07,78,73,266,26,87,49,046,26,77,33,162,,79,27,322,,1*78
$GLGSV,2,2,07,71,14,046,,70,13,348,,81,07,227,,1*4D
$GNGLL,5429.4097,N,00943.9060,E,132145.000,A,A*46
$GPTXT,01,01,02,ANTSTATUS=OPEN*2B
$GNRMC,132145.000,A,5429.4097,N,00943.9060,E,0.00,153.26,180226,,,A,V*07
$GPVTG,153.26,T,,M,0.00,N,0.00,K,A*3E
$GPGGA,132145.000,5429.4097,N,00943.9060,E,1,4,1.93,27.6,M,45.0,M,,*60
$GNGSA,A,3,16,18,26,,,,,,,,,,2.18,1.93,1.00,1*0A
$GNGSA,A,3,87,,,,,,,,,,,,2.18,1.93,1.00,2*0C
$GPGSV,4,1,14,26,70,239,21,18,67,156,21,16,46,295,26,29,37,081,16,0*6A
$GPGSV,4,2,14,31,32,228,,05,26,051,17,27,15,266,16,28,13,203,,0*63
$GPGSV,4,3,14,21,11,026,15,23,10,147,,25,05,137,,09,04,322,,0*6F
$GPGSV,4,4,14,04,01,294,,38,,,,0*51
$GLGSV,2,1,07,78,73,266,26,87,49,046,26,77,33,162,,79,27,322,,1*78
$GLGSV,2,2,07,71,14,046,,70,13,348,,81,07,227,,1*4D
$GNGLL,5429.4097,N,00943.9060,E,132145.000,A,A*46
$GPTXT,01,01,02,ANTSTATUS=OPEN*2B
$GNRMC,132145.000,A,5429.4097,N,00943.9060,E,0.00,153.26,180226,,,A,V*07
$GPVTG,153.26,T,,M,0.00,N,0.00,K,A*3E
$GPGGA,132145.000,5429.4097,N,00943.9060,E,1,4,1.93,27.6,M,45.0,M,,*60
$GNGSA,A,3,16,18,26,,,,,,,,,,2.18,1.93,1.00,1*0A
$GNGSA,A,3,87,,,,,,,,,,,,2.18,1.93,1.00,2*0C
$GPGSV,4,1,14,26,70,239,21,18,67,156,21,16,46,295,26,29,37,081,16,0*6A
$GPGSV,4,2,14,31,32,228,,05,26,051,17,27,15,266,16,28,13,203,,0*63
$GPGSV,4,3,14,21,11,026,15,23,10,147,,25,05,137,,09,04,322,,0*6F
$GPGSV,4,4,14,04,01,294,,38,,,,0*51
$GLGSV,2,1,07,78,73,266,26,87,49,046,26,77,33,162,,79,27,322,,1*78
$GLGSV,2,2,07,71,14,046,,70,13,348,,81,07,227,,1*4D
$GNGLL,5429.4097,N,00943.9060,E,132145.000,A,A*46
$GPTXT,01,01,02,ANTSTATUS=OPEN*2B
$GNRMC,132145.000,A,5429.4097,N,00943.9060,E,0.00,153.26,180226,,,A,V*07
$GPVTG,153.26,T,,M,0.00,N,0.00,K,A*3E
$GPGGA,132145.000,5429.4097,N,00943.9060,E,1,4,1.93,27.6,M,45.0,M,,*60
$GNGSA,A,3,16,18,26,,,,,,,,,,2.18,1.93,1.00,1*0A
$GNGSA,A,3,87,,,,,,,,,,,,2.18,1.93,1.00,2*0C
$GPGSV,4,1,14,26,70,239,21,18,67,156,21,16,46,295,26,29,37,081,16,0*6A
$GPGSV,4,2,14,31,32,228,,05,26,051,17,27,15,266,16,28,13,203,,0*63
$GPGSV,4,3,14,21,11,026,15,23,10,147,,25,05,137,,09,04,322,,0*6F
$GPGSV,4,4,14,04,01,294,,38,,,,0*51
$GLGSV,2,1,07,78,73,266,26,87,49,046,26,77,33,162,,79,27,322,,1*78
$GLGSV,2,2,07,71,14,046,,70,13,348,,81,07,227,,1*4D
$GNGLL,5429.4097,N,00943.9060,E,132145.000,A,A*46
$GPTXT,01,01,02,ANTSTATUS=OPEN*2B
$GNRMC,132145.000,A,5429.4097,N,00943.9060,E,0.00,153.26,180226,,,A,V*07
$GPVTG,153.26,T,,M,0.00,N,0.00,K,A*3E
$GPGGA,132145.000,5429.4097,N,00943.9060,E,1,4,1.93,27.6,M,45.0,M,,*60
$GNGSA,A,3,16,18,26,,,,,,,,,,2.18,1.93,1.00,1*0A
$GNGSA,A,3,87,,,,,,,,,,,,2.18,1.93,1.00,2*0C
$GPGSV,4,1,14,26,70,239,21,18,67,156,21,16,46,295,26,29,37,081,16,0*6A
$GPGSV,4,2,14,31,32,228,,05,26,051,17,27,15,266,16,28,13,203,,0*63
$GPGSV,4,3,14,21,11,026,15,23,10,147,,25,05,137,,09,04,322,,0*6F
$GPGSV,4,4,14,04,01,294,,38,,,,0*51
$GLGSV,2,1,07,78,73,266,26,87,49,046,26,77,33,162,,79,27,322,,1*78
$GLGSV,2,2,07,71,14,046,,70,13,348,,81,07,227,,1*4D
$GNGLL,5429.4097,N,00943.9060,E,132145.000,A,A*46
$GPTXT,01,01,02,ANTSTATUS=OPEN*2B
$GNRMC,132145.000,A,5429.4097,N,00943.9060,E,0.00,153.26,180226,,,A,V*07
$GPVTG,153.26,T,,M,0.00,N,0.00,K,A*3E
$GPGGA,132145.000,5429.4097,N,00943.9060,E,1,4,1.93,27.6,M,45.0,M,,*60
$GNGSA,A,3,16,18,26,,,,,,,,,,2.18,1.93,1.00,1*0A
$GNGSA,A,3,87,,,,,,,,,,,,2.18,1.93,1.00,2*0C
$GPGSV,4,1,14,26,70,239,21,18,67,156,21,16,46,295,26,29,37,081,16,0*6A
$GPGSV,4,2,14,31,32,228,,05,26,051,17,27,15,266,16,28,13,203,,0*63
$GPGSV,4,3,14,21,11,026,15,23,10,147,,25,05,137,,09,04,322,,0*6F
$GPGSV,4,4,14,04,01,294,,38,,,,0*51
$GLGSV,2,1,07,78,73,266,26,87,49,046,26,77,33,162,,79,27,322,,1*78
$GLGSV,2,2,07,71,14,046,,70,13,348,,81,07,227,,1*4D
$GNGLL,5429.4097,N,00943.9060,E,132145.000,A,A*46
$GPTXT,01,01,02,ANTSTATUS=OPEN*2B
$GNRMC,132145.000,A,5429.4097,N,00943.9060,E,0.00,153.26,180226,,,A,V*07
$GPVTG,153.26,T,,M,0.00,N,0.00,K,A*3E
$GPGGA,132145.000,5429.4097,N,00943.9060,E,1,4,1.93,27.6,M,45.0,M,,*60
$GNGSA,A,3,16,18,26,,,,,,,,,,2.18,1.93,1.00,1*0A
$GNGSA,A,3,87,,,,,,,,,,,,2.18,1.93,1.00,2*0C
$GPGSV,4,1,14,26,70,239,21,18,67,156,21,16,46,295,26,29,37,081,16,0*6A
$GPGSV,4,2,14,31,32,228,,05,26,051,17,27,15,266,16,28,13,203,,0*63
$GPGSV,4,3,14,21,11,026,15,23,10,147,,25,05,137,,09,04,322,,0*6F
$GPGSV,4,4,14,04,01,294,,38,,,,0*51
$GLGSV,2,1,07,78,73,266,26,87,49,046,26,77,33,162,,79,27,322,,1*78
$GLGSV,2,2,07,71,14,046,,70,13,348,,81,07,227,,1*4D
$GNGLL,5429.4097,N,00943.9060,E,132145.000,A,A*46
$GPTXT,01,01,02,ANTSTATUS=OPEN*2B
$GNRMC,132145.000,A,5429.4097,N,00943.9060,E,0.00,153.26,180226,,,A,V*07
$GPVTG,153.26,T,,M,0.00,N,0.00,K,A*3E
$GPGGA,132145.000,5429.4097,N,00943.9060,E,1,4,1.93,27.6,M,45.0,M,,*60
$GNGSA,A,3,16,18,26,,,,,,,,,,2.18,1.93,1.00,1*0A
$GNGSA,A,3,87,,,,,,,,,,,,2.18,1.93,1.00,2*0C
$GPGSV,4,1,14,26,70,239,21,18,67,156,21,16,46,295,26,29,37,081,16,0*6A
$GPGSV,4,2,14,31,32,228,,05,26,051,17,27,15,266,16,28,13,203,,0*63
$GPGSV,4,3,14,21,11,026,15,23,10,147,,25,05,137,,09,04,322,,0*6F
$GPGSV,4,4,14,04,01,294,,38,,,,0*51
$GLGSV,2,1,07,78,73,266,26,87,49,046,26,77,33,162,,79,27,322,,1*78
$GLGSV,2,2,07,71,14,046,,70,13,348,,81,07,227,,1*4D
$GNGLL,5429.4097,N,00943.9060,E,132145.000,A,A*46
$GPTXT,01,01,02,ANTSTATUS=OPEN*2B
$GNRMC,132145.000,A,5429.4097,N,00943.9060,E,0.00,153.26,180226,,,A,V*07
$GPVTG,153.26,T,,M,0.00,N,0.00,K,A*3E
$GPGGA,132145.000,5429.4097,N,00943.9060,E,1,4,1.93,27.6,M,45.0,M,,*60
$GNGSA,A,3,16,18,26,,,,,,,,,,2.18,1.93,1.00,1*0A
$GNGSA,A,3,87,,,,,,,,,,,,2.18,1.93,1.00,2*0C
$GPGSV,4,1,14,26,70,239,21,18,67,156,21,16,46,295,26,29,37,081,16,0*6A
$GPGSV,4,2,14,31,32,228,,05,26,051,17,27,15,266,16,28,13,203,,0*63
$GPGSV,4,3,14,21,11,026,15,23,10,147,,25,05,137,,09,04,322,,0*6F
$GPGSV,4,4,14,04,01,294,,38,,,,0*51
$GLGSV,2,1,07,78,73,266,26,87,49,046,26,77,33,162,,79,27,322,,1*78
$GLGSV,2,2,07,71,14,046,,70,13,348,,81,07,227,,1*4D
$GNGLL,5429.4097,N,00943.9060,E,132145.000,A,A*46
$GPTXT,01,01,02,ANTSTATUS=OPEN*2B
$GNRMC,132145.000,A,5429.4097,N,00943.9060,E,0.00,153.26,180226,,,A,V*07
$GPVTG,153.26,T,,M,0.00,N,0.00,K,A*3E
$GPGGA,132145.000,5429.4097,N,00943.9060,E,1,4,1.93,27.6,M,45.0,M,,*60
$GNGSA,A,3,16,18,26,,,,,,,,,,2.18,1.93,1.00,1*0A
$GNGSA,A,3,87,,,,,,,,,,,,2.18,1.93,1.00,2*0C
$GPGSV,4,1,14,26,70,239,21,18,67,156,21,16,46,295,26,29,37,081,16,0*6A
$GPGSV,4,2,14,31,32,228,,05,26,051,17,27,15,266,16,28,13,203,,0*63
$GPGSV,4,3,14,21,11,026,15,23,10,147,,25,05,137,,09,04,322,,0*6F
$GPGSV,4,4,14,04,01,294,,38,,,,0*51
$GLGSV,2,1,07,78,73,266,26,87,49,046,26,77,33,162,,79,27,322,,1*78
$GLGSV,2,2,07,71,14,046,,70,13,348,,81,07,227,,1*4D
$GNGLL,5429.4097,N,00943.9060,E,132145.000,A,A*46
$GPTXT,01,01,02,ANTSTATUS=OPEN*2B
*******************************
$GNRMC,132146.000,A,5429.4097,N,00943.9060,E,0.95,356.18,180226,,,A,V*02
*******************************
$GNRMC,132146.000,A,5429.4097,N,00943.9060,E,0.95,356.18,180226,,,A,V*02
$GPVTG,356.18,T,,M,0.95,N,1.77,K,A*39
$GPGGA,132146.000,5429.4097,N,00943.9060,E,1,4,1.93,27.6,M,45.0,M,,*63
$GNGSA,A,3,16,18,26,,,,,,,,,,2.18,1.93,1.00,1*0A
$GNGSA,A,3,87,,,,,,,,,,,,2.18,1.93,1.00,2*0C
$GPGSV,4,1,14,26,70,239,21,18,67,156,21,16,46,295,26,29,37,081,17,0*6B
$GPGSV,4,2,14,31,32,228,,05,26,051,17,27,15,266,16,28,13,203,,0*63
$GPGSV,4,3,14,21,11,026,16,23,10,147,,25,05,137,,09,04,322,,0*6C
$GPGSV,4,4,14,04,01,294,,38,,,,0*51
$GLGSV,2,1,07,78,73,266,27,87,49,046,26,77,33,162,,79,27,322,,1*79
$GLGSV,2,2,07,71,14,046,,70,13,348,,81,07,227,,1*4D
$GNGLL,5429.4097,N,00943.9060,E,132146.000,A,A*45
$GPTXT,01,01,02,ANTSTATUS=OPEN*2B
$GNRMC,132146.000,A,5429.4097,N,00943.9060,E,0.95,356.18,180226,,,A,V*02
$GPVTG,356.18,T,,M,0.95,N,1.77,K,A*39
$GPGGA,132146.000,5429.4097,N,00943.9060,E,1,4,1.93,27.6,M,45.0,M,,*63
$GNGSA,A,3,16,18,26,,,,,,,,,,2.18,1.93,1.00,1*0A
$GNGSA,A,3,87,,,,,,,,,,,,2.18,1.93,1.00,2*0C
$GPGSV,4,1,14,26,70,239,21,18,67,156,21,16,46,295,26,29,37,081,17,0*6B
$GPGSV,4,2,14,31,32,228,,05,26,051,17,27,15,266,16,28,13,203,,0*63
$GPGSV,4,3,14,21,11,026,16,23,10,147,,25,05,137,,09,04,322,,0*6C
$GPGSV,4,4,14,04,01,294,,38,,,,0*51
$GLGSV,2,1,07,78,73,266,27,87,49,046,26,77,33,162,,79,27,322,,1*79
$GLGSV,2,2,07,71,14,046,,70,13,348,,81,07,227,,1*4D
$GNGLL,5429.4097,N,00943.9060,E,132146.000,A,A*45
$GPTXT,01,01,02,ANTSTATUS=OPEN*2B
$GNRMC,132146.000,A,5429.4097,N,00943.9060,E,0.95,356.18,180226,,,A,V*02
$GPVTG,356.18,T,,M,0.95,N,1.77,K,A*39
$GPGGA,132146.000,5429.4097,N,00943.9060,E,1,4,1.93,27.6,M,45.0,M,,*63
$GNGSA,A,3,16,18,26,,,,,,,,,,2.18,1.93,1.00,1*0A
$GNGSA,A,3,87,,,,,,,,,,,,2.18,1.93,1.00,2*0C
$GPGSV,4,1,14,26,70,239,21,18,67,156,21,16,46,295,26,29,37,081,17,0*6B
$GPGSV,4,2,14,31,32,228,,05,26,051,17,27,15,266,16,28,13,203,,0*63
$GPGSV,4,3,14,21,11,026,16,23,10,147,,25,05,137,,09,04,322,,0*6C
$GPGSV,4,4,14,04,01,294,,38,,,,0*51
$GLGSV,2,1,07,78,73,266,27,87,49,046,26,77,33,162,,79,27,322,,1*79
$GLGSV,2,2,07,71,14,046,,70,13,348,,81,07,227,,1*4D
$GNGLL,5429.4097,N,00943.9060,E,132146.000,A,A*45
$GPTXT,01,01,02,ANTSTATUS=OPEN*2B
$GNRMC,132146.000,A,5429.4097,N,00943.9060,E,0.95,356.18,180226,,,A,V*02
$GPVTG,356.18,T,,M,0.95,N,1.77,K,A*39
$GPGGA,132146.000,5429.4097,N,00943.9060,E,1,4,1.93,27.6,M,45.0,M,,*63
$GNGSA,A,3,16,18,26,,,,,,,,,,2.18,1.93,1.00,1*0A
$GNGSA,A,3,87,,,,,,,,,,,,2.18,1.93,1.00,2*0C
$GPGSV,4,1,14,26,70,239,21,18,67,156,21,16,46,295,26,29,37,081,17,0*6B
$GPGSV,4,2,14,31,32,228,,05,26,051,17,27,15,266,16,28,13,203,,0*63
$GPGSV,4,3,14,21,11,026,16,23,10,147,,25,05,137,,09,04,322,,0*6C
$GPGSV,4,4,14,04,01,294,,38,,,,0*51
$GLGSV,2,1,07,78,73,266,27,87,49,046,26,77,33,162,,79,27,322,,1*79
$GLGSV,2,2,07,71,14,046,,70,13,348,,81,07,227,,1*4D
$GNGLL,5429.4097,N,00943.9060,E,132146.000,A,A*45
$GPTXT,01,01,02,ANTSTATUS=OPEN*2B
$GNRMC,132146.000,A,5429.4097,N,00943.9060,E,0.95,356.18,180226,,,A,V*02
$GPVTG,356.18,T,,M,0.95,N,1.77,K,A*39
$GPGGA,132146.000,5429.4097,N,00943.9060,E,1,4,1.93,27.6,M,45.0,M,,*63
$GNGSA,A,3,16,18,26,,,,,,,,,,2.18,1.93,1.00,1*0A
$GNGSA,A,3,87,,,,,,,,,,,,2.18,1.93,1.00,2*0C
$GPGSV,4,1,14,26,70,239,21,18,67,156,21,16,46,295,26,29,37,081,17,0*6B
$GPGSV,4,2,14,31,32,228,,05,26,051,17,27,15,266,16,28,13,203,,0*63
$GPGSV,4,3,14,21,11,026,16,23,10,147,,25,05,137,,09,04,322,,0*6C
$GPGSV,4,4,14,04,01,294,,38,,,,0*51
$GLGSV,2,1,07,78,73,266,27,87,49,046,26,77,33,162,,79,27,322,,1*79
$GLGSV,2,2,07,71,14,046,,70,13,348,,81,07,227,,1*4D
$GNGLL,5429.4097,N,00943.9060,E,132146.000,A,A*45
$GPTXT,01,01,02,ANTSTATUS=OPEN*2B
$GNRMC,132146.000,A,5429.4097,N,00943.9060,E,0.95,356.18,180226,,,A,V*02
$GPVTG,356.18,T,,M,0.95,N,1.77,K,A*39
$GPGGA,132146.000,5429.4097,N,00943.9060,E,1,4,1.93,27.6,M,45.0,M,,*63
$GNGSA,A,3,16,18,26,,,,,,,,,,2.18,1.93,1.00,1*0A
$GNGSA,A,3,87,,,,,,,,,,,,2.18,1.93,1.00,2*0C
$GPGSV,4,1,14,26,70,239,21,18,67,156,21,16,46,295,26,29,37,081,17,0*6B
$GPGSV,4,2,14,31,32,228,,05,26,051,17,27,15,266,16,28,13,203,,0*63
$GPGSV,4,3,14,21,11,026,16,23,10,147,,25,05,137,,09,04,322,,0*6C
$GPGSV,4,4,14,04,01,294,,38,,,,0*51
$GLGSV,2,1,07,78,73,266,27,87,49,046,26,77,33,162,,79,27,322,,1*79
$GLGSV,2,2,07,71,14,046,,70,13,348,,81,07,227,,1*4D
$GNGLL,5429.4097,N,00943.9060,E,132146.000,A,A*45
$GPTXT,01,01,02,ANTSTATUS=OPEN*2B
$GNRMC,132146.000,A,5429.4097,N,00943.9060,E,0.95,356.18,180226,,,A,V*02
$GPVTG,356.18,T,,M,0.95,N,1.77,K,A*39
$GPGGA,132146.000,5429.4097,N,00943.9060,E,1,4,1.93,27.6,M,45.0,M,,*63
$GNGSA,A,3,16,18,26,,,,,,,,,,2.18,1.93,1.00,1*0A
$GNGSA,A,3,87,,,,,,,,,,,,2.18,1.93,1.00,2*0C
$GPGSV,4,1,14,26,70,239,21,18,67,156,21,16,46,295,26,29,37,081,17,0*6B
$GPGSV,4,2,14,31,32,228,,05,26,051,17,27,15,266,16,28,13,203,,0*63
$GPGSV,4,3,14,21,11,026,16,23,10,147,,25,05,137,,09,04,322,,0*6C
$GPGSV,4,4,14,04,01,294,,38,,,,0*51
$GLGSV,2,1,07,78,73,266,27,87,49,046,26,77,33,162,,79,27,322,,1*79
$GLGSV,2,2,07,71,14,046,,70,13,348,,81,07,227,,1*4D
$GNGLL,5429.4097,N,00943.9060,E,132146.000,A,A*45
$GPTXT,01,01,02,ANTSTATUS=OPEN*2B
$GNRMC,132146.000,A,5429.4097,N,00943.9060,E,0.95,356.18,180226,,,A,V*02
$GPVTG,356.18,T,,M,0.95,N,1.77,K,A*39
$GPGGA,132146.000,5429.4097,N,00943.9060,E,1,4,1.93,27.6,M,45.0,M,,*63
$GNGSA,A,3,16,18,26,,,,,,,,,,2.18,1.93,1.00,1*0A
$GNGSA,A,3,87,,,,,,,,,,,,2.18,1.93,1.00,2*0C
$GPGSV,4,1,14,26,70,239,21,18,67,156,21,16,46,295,26,29,37,081,17,0*6B
$GPGSV,4,2,14,31,32,228,,05,26,051,17,27,15,266,16,28,13,203,,0*63
$GPGSV,4,3,14,21,11,026,16,23,10,147,,25,05,137,,09,04,322,,0*6C
$GPGSV,4,4,14,04,01,294,,38,,,,0*51
$GLGSV,2,1,07,78,73,266,27,87,49,046,26,77,33,162,,79,27,322,,1*79
$GLGSV,2,2,07,71,14,046,,70,13,348,,81,07,227,,1*4D
$GNGLL,5429.4097,N,00943.9060,E,132146.000,A,A*45
$GPTXT,01,01,02,ANTSTATUS=OPEN*2B
$GNRMC,132146.000,A,5429.4097,N,00943.9060,E,0.95,356.18,180226,,,A,V*02
$GPVTG,356.18,T,,M,0.95,N,1.77,K,A*39
$GPGGA,132146.000,5429.4097,N,00943.9060,E,1,4,1.93,27.6,M,45.0,M,,*63
$GNGSA,A,3,16,18,26,,,,,,,,,,2.18,1.93,1.00,1*0A
$GNGSA,A,3,87,,,,,,,,,,,,2.18,1.93,1.00,2*0C
$GPGSV,4,1,14,26,70,239,21,18,67,156,21,16,46,295,26,29,37,081,17,0*6B
$GPGSV,4,2,14,31,32,228,,05,26,051,17,27,15,266,16,28,13,203,,0*63
$GPGSV,4,3,14,21,11,026,16,23,10,147,,25,05,137,,09,04,322,,0*6C
$GPGSV,4,4,14,04,01,294,,38,,,,0*51
$GLGSV,2,1,07,78,73,266,27,87,49,046,26,77,33,162,,79,27,322,,1*79
$GLGSV,2,2,07,71,14,046,,70,13,348,,81,07,227,,1*4D
$GNGLL,5429.4097,N,00943.9060,E,132146.000,A,A*45
$GPTXT,01,01,02,ANTSTATUS=OPEN*2B
$GNRMC,132146.000,A,5429.4097,N,00943.9060,E,0.95,356.18,180226,,,A,V*02
$GPVTG,356.18,T,,M,0.95,N,1.77,K,A*39
$GPGGA,132146.000,5429.4097,N,00943.9060,E,1,4,1.93,27.6,M,45.0,M,,*63
$GNGSA,A,3,16,18,26,,,,,,,,,,2.18,1.93,1.00,1*0A
$GNGSA,A,3,87,,,,,,,,,,,,2.18,1.93,1.00,2*0C
$GPGSV,4,1,14,26,70,239,21,18,67,156,21,16,46,295,26,29,37,081,17,0*6B
$GPGSV,4,2,14,31,32,228,,05,26,051,17,27,15,266,16,28,13,203,,0*63
$GPGSV,4,3,14,21,11,026,16,23,10,147,,25,05,137,,09,04,322,,0*6C
$GPGSV,4,4,14,04,01,294,,38,,,,0*51
$GLGSV,2,1,07,78,73,266,27,87,49,046,26,77,33,162,,79,27,322,,1*79
$GLGSV,2,2,07,71,14,046,,70,13,348,,81,07,227,,1*4D
$GNGLL,5429.4097,N,00943.9060,E,132146.000,A,A*45
$GPTXT,01,01,02,ANTSTATUS=OPEN*2B
*******************************
$GNRMC,132147.000,A,5429.4108,N,00943.9076,E,1.45,358.62,180226,,,A,V*0C
*******************************
$GNRMC,132147.000,A,5429.4108,N,00943.9076,E,1.45,358.62,180226,,,A,V*0C
$GPVTG,358.62,T,,M,1.45,N,2.69,K,A*3A
$GPGGA,132147.000,5429.4108,N,00943.9076,E,1,5,1.76,26.6,M,45.0,M,,*69
$GNGSA,A,3,16,18,26,29,,,,,,,,,2.02,1.76,0.99,1*00
$GNGSA,A,3,87,,,,,,,,,,,,2.02,1.76,0.99,2*0D
$GPGSV,4,1,14,26,70,239,21,18,67,156,21,16,46,295,26,29,37,081,17,0*6B
$GPGSV,4,2,14,31,32,228,,05,26,051,17,27,15,266,16,28,13,203,,0*63
$GPGSV,4,3,14,21,11,026,16,23,10,147,,25,05,137,,09,04,322,,0*6C
$GPGSV,4,4,14,04,01,294,,38,,,,0*51
$GLGSV,2,1,07,78,73,266,28,87,49,046,26,77,33,162,,79,27,322,,1*76
$GLGSV,2,2,07,71,14,046,,70,13,348,,81,07,227,,1*4D
$GNGLL,5429.4108,N,00943.9076,E,132147.000,A,A*44
$GPTXT,01,01,02,ANTSTATUS=OPEN*2B
$GNRMC,132147.000,A,5429.4108,N,00943.9076,E,1.45,358.62,180226,,,A,V*0C
$GPVTG,358.62,T,,M,1.45,N,2.69,K,A*3A
$GPGGA,132147.000,5429.4108,N,00943.9076,E,1,5,1.76,26.6,M,45.0,M,,*69
$GNGSA,A,3,16,18,26,29,,,,,,,,,2.02,1.76,0.99,1*00
$GNGSA,A,3,87,,,,,,,,,,,,2.02,1.76,0.99,2*0D
$GPGSV,4,1,14,26,70,239,21,18,67,156,21,16,46,295,26,29,37,081,17,0*6B
$GPGSV,4,2,14,31,32,228,,05,26,051,17,27,15,266,16,28,13,203,,0*63
$GPGSV,4,3,14,21,11,026,16,23,10,147,,25,05,137,,09,04,322,,0*6C
$GPGSV,4,4,14,04,01,294,,38,,,,0*51
$GLGSV,2,1,07,78,73,266,28,87,49,046,26,77,33,162,,79,27,322,,1*76
$GLGSV,2,2,07,71,14,046,,70,13,348,,81,07,227,,1*4D
$GNGLL,5429.4108,N,00943.9076,E,132147.000,A,A*44
$GPTXT,01,01,02,ANTSTATUS=OPEN*2B
$GNRMC,132147.000,A,5429.4108,N,00943.9076,E,1.45,358.62,180226,,,A,V*0C
$GPVTG,358.62,T,,M,1.45,N,2.69,K,A*3A
$GPGGA,132147.000,5429.4108,N,00943.9076,E,1,5,1.76,26.6,M,45.0,M,,*69
$GNGSA,A,3,16,18,26,29,,,,,,,,,2.02,1.76,0.99,1*00
$GNGSA,A,3,87,,,,,,,,,,,,2.02,1.76,0.99,2*0D
$GPGSV,4,1,14,26,70,239,21,18,67,156,21,16,46,295,26,29,37,081,17,0*6B
$GPGSV,4,2,14,31,32,228,,05,26,051,17,27,15,266,16,28,13,203,,0*63
$GPGSV,4,3,14,21,11,026,16,23,10,147,,25,05,137,,09,04,322,,0*6C
$GPGSV,4,4,14,04,01,294,,38,,,,0*51
$GLGSV,2,1,07,78,73,266,28,87,49,046,26,77,33,162,,79,27,322,,1*76
$GLGSV,2,2,07,71,14,046,,70,13,348,,81,07,227,,1*4D
$GNGLL,5429.4108,N,00943.9076,E,132147.000,A,A*44
$GPTXT,01,01,02,ANTSTATUS=OPEN*2B
$GNRMC,132147.000,A,5429.4108,N,00943.9076,E,1.45,358.62,180226,,,A,V*0C
$GPVTG,358.62,T,,M,1.45,N,2.69,K,A*3A
$GPGGA,132147.000,5429.4108,N,00943.9076,E,1,5,1.76,26.6,M,45.0,M,,*69
$GNGSA,A,3,16,18,26,29,,,,,,,,,2.02,1.76,0.99,1*00
$GNGSA,A,3,87,,,,,,,,,,,,2.02,1.76,0.99,2*0D
$GPGSV,4,1,14,26,70,239,21,18,67,156,21,16,46,295,26,29,37,081,17,0*6B
$GPGSV,4,2,14,31,32,228,,05,26,051,17,27,15,266,16,28,13,203,,0*63
$GPGSV,4,3,14,21,11,026,16,23,10,147,,25,05,137,,09,04,322,,0*6C
$GPGSV,4,4,14,04,01,294,,38,,,,0*51
$GLGSV,2,1,07,78,73,266,28,87,49,046,26,77,33,162,,79,27,322,,1*76
$GLGSV,2,2,07,71,14,046,,70,13,348,,81,07,227,,1*4D
$GNGLL,5429.4108,N,00943.9076,E,132147.000,A,A*44
$GPTXT,01,01,02,ANTSTATUS=OPEN*2B
$GNRMC,132147.000,A,5429.4108,N,00943.9076,E,1.45,358.62,180226,,,A,V*0C
$GPVTG,358.62,T,,M,1.45,N,2.69,K,A*3A
$GPGGA,132147.000,5429.4108,N,00943.9076,E,1,5,1.76,26.6,M,45.0,M,,*69
$GNGSA,A,3,16,18,26,29,,,,,,,,,2.02,1.76,0.99,1*00
$GNGSA,A,3,87,,,,,,,,,,,,2.02,1.76,0.99,2*0D
$GPGSV,4,1,14,26,70,239,21,18,67,156,21,16,46,295,26,29,37,081,17,0*6B
$GPGSV,4,2,14,31,32,228,,05,26,051,17,27,15,266,16,28,13,203,,0*63
$GPGSV,4,3,14,21,11,026,16,23,10,147,,25,05,137,,09,04,322,,0*6C
$GPGSV,4,4,14,04,01,294,,38,,,,0*51
$GLGSV,2,1,07,78,73,266,28,87,49,046,26,77,33,162,,79,27,322,,1*76
$GLGSV,2,2,07,71,14,046,,70,13,348,,81,07,227,,1*4D
$GNGLL,5429.4108,N,00943.9076,E,132147.000,A,A*44
$GPTXT,01,01,02,ANTSTATUS=OPEN*2B
$GNRMC,132147.000,A,5429.4108,N,00943.9076,E,1.45,358.62,180226,,,A,V*0C
$GPVTG,358.62,T,,M,1.45,N,2.69,K,A*3A
$GPGGA,132147.000,5429.4108,N,00943.9076,E,1,5,1.76,26.6,M,45.0,M,,*69
$GNGSA,A,3,16,18,26,29,,,,,,,,,2.02,1.76,0.99,1*00
$GNGSA,A,3,87,,,,,,,,,,,,2.02,1.76,0.99,2*0D
$GPGSV,4,1,14,26,70,239,21,18,67,156,21,16,46,295,26,29,37,081,17,0*6B
$GPGSV,4,2,14,31,32,228,,05,26,051,17,27,15,266,16,28,13,203,,0*63
$GPGSV,4,3,14,21,11,026,16,23,10,147,,25,05,137,,09,04,322,,0*6C
$GPGSV,4,4,14,04,01,294,,38,,,,0*51
$GLGSV,2,1,07,78,73,266,28,87,49,046,26,77,33,162,,79,27,322,,1*76
$GLGSV,2,2,07,71,14,046,,70,13,348,,81,07,227,,1*4D
$GNGLL,5429.4108,N,00943.9076,E,132147.000,A,A*44
$GPTXT,01,01,02,ANTSTATUS=OPEN*2B
$GNRMC,132147.000,A,5429.4108,N,00943.9076,E,1.45,358.62,180226,,,A,V*0C
$GPVTG,358.62,T,,M,1.45,N,2.69,K,A*3A
$GPGGA,132147.000,5429.4108,N,00943.9076,E,1,5,1.76,26.6,M,45.0,M,,*69
$GNGSA,A,3,16,18,26,29,,,,,,,,,2.02,1.76,0.99,1*00
$GNGSA,A,3,87,,,,,,,,,,,,2.02,1.76,0.99,2*0D
$GPGSV,4,1,14,26,70,239,21,18,67,156,21,16,46,295,26,29,37,081,17,0*6B
$GPGSV,4,2,14,31,32,228,,05,26,051,17,27,15,266,16,28,13,203,,0*63
$GPGSV,4,3,14,21,11,026,16,23,10,147,,25,05,137,,09,04,322,,0*6C
$GPGSV,4,4,14,04,01,294,,38,,,,0*51
$GLGSV,2,1,07,78,73,266,28,87,49,046,26,77,33,162,,79,27,322,,1*76
$GLGSV,2,2,07,71,14,046,,70,13,348,,81,07,227,,1*4D
$GNGLL,5429.4108,N,00943.9076,E,132147.000,A,A*44
$GPTXT,01,01,02,ANTSTATUS=OPEN*2B
$GNRMC,132147.000,A,5429.4108,N,00943.9076,E,1.45,358.62,180226,,,A,V*0C
$GPVTG,358.62,T,,M,1.45,N,2.69,K,A*3A
$GPGGA,132147.000,5429.4108,N,00943.9076,E,1,5,1.76,26.6,M,45.0,M,,*69
$GNGSA,A,3,16,18,26,29,,,,,,,,,2.02,1.76,0.99,1*00
$GNGSA,A,3,87,,,,,,,,,,,,2.02,1.76,0.99,2*0D
$GPGSV,4,1,14,26,70,239,21,18,67,156,21,16,46,295,26,29,37,081,17,0*6B
$GPGSV,4,2,14,31,32,228,,05,26,051,17,27,15,266,16,28,13,203,,0*63
$GPGSV,4,3,14,21,11,026,16,23,10,147,,25,05,137,,09,04,322,,0*6C
$GPGSV,4,4,14,04,01,294,,38,,,,0*51
$GLGSV,2,1,07,78,73,266,28,87,49,046,26,77,33,162,,79,27,322,,1*76
$GLGSV,2,2,07,71,14,046,,70,13,348,,81,07,227,,1*4D
$GNGLL,5429.4108,N,00943.9076,E,132147.000,A,A*44
$GPTXT,01,01,02,ANTSTATUS=OPEN*2B
$GNRMC,132147.000,A,5429.4108,N,00943.9076,E,1.45,358.62,180226,,,A,V*0C
$GPVTG,358.62,T,,M,1.45,N,2.69,K,A*3A
$GPGGA,132147.000,5429.4108,N,00943.9076,E,1,5,1.76,26.6,M,45.0,M,,*69
$GNGSA,A,3,16,18,26,29,,,,,,,,,2.02,1.76,0.99,1*00
$GNGSA,A,3,87,,,,,,,,,,,,2.02,1.76,0.99,2*0D
$GPGSV,4,1,14,26,70,239,21,18,67,156,21,16,46,295,26,29,37,081,17,0*6B
$GPGSV,4,2,14,31,32,228,,05,26,051,17,27,15,266,16,28,13,203,,0*63
$GPGSV,4,3,14,21,11,026,16,23,10,147,,25,05,137,,09,04,322,,0*6C
$GPGSV,4,4,14,04,01,294,,38,,,,0*51
$GLGSV,2,1,07,78,73,266,28,87,49,046,26,77,33,162,,79,27,322,,1*76
$GLGSV,2,2,07,71,14,046,,70,13,348,,81,07,227,,1*4D
$GNGLL,5429.4108,N,00943.9076,E,132147.000,A,A*44
$GPTXT,01,01,02,ANTSTATUS=OPEN*2B
$GNRMC,132147.000,A,5429.4108,N,00943.9076,E,1.45,358.62,180226,,,A,V*0C
$GPVTG,358.62,T,,M,1.45,N,2.69,K,A*3A
$GPGGA,132147.000,5429.4108,N,00943.9076,E,1,5,1.76,26.6,M,45.0,M,,*69
$GNGSA,A,3,16,18,26,29,,,,,,,,,2.02,1.76,0.99,1*00
$GNGSA,A,3,87,,,,,,,,,,,,2.02,1.76,0.99,2*0D
$GPGSV,4,1,14,26,70,239,21,18,67,156,21,16,46,295,26,29,37,081,17,0*6B
$GPGSV,4,2,14,31,32,228,,05,26,051,17,27,15,266,16,28,13,203,,0*63
$GPGSV,4,3,14,21,11,026,16,23,10,147,,25,05,137,,09,04,322,,0*6C
$GPGSV,4,4,14,04,01,294,,38,,,,0*51
$GLGSV,2,1,07,78,73,266,28,87,49,046,26,77,33,162,,79,27,322,,1*76
$GLGSV,2,2,07,71,14,046,,70,13,348,,81,07,227,,1*4D
$GNGLL,5429.4108,N,00943.9076,E,132147.000,A,A*44
$GPTXT,01,01,02,ANTSTATUS=OPEN*2B
*******************************
$GNRMC,132148.000,A,5429.4108,N,00943.9076,E,0.00,358.62,180226,,,A,V*03
*******************************
$GNRMC,132148.000,A,5429.4108,N,00943.9076,E,0.00,358.62,180226,,,A,V*03
$GPVTG,358.62,T,,M,0.00,N,0.00,K,A*37
$GPGGA,132148.000,5429.4108,N,00943.9076,E,1,5,1.76,26.5,M,45.0,M,,*65
$GNGSA,A,3,16,18,26,29,,,,,,,,,2.02,1.76,0.99,1*00
$GNGSA,A,3,87,,,,,,,,,,,,2.02,1.76,0.99,2*0D
$GPGSV,4,1,14,26,70,239,21,18,67,156,21,16,46,295,26,29,37,081,17,0*6B
$GPGSV,4,2,14,31,32,228,,05,26,051,17,27,15,266,16,28,13,203,,0*63
$GPGSV,4,3,14,21,11,026,15,23,10,147,,25,05,137,,09,04,322,,0*6F
$GPGSV,4,4,14,04,01,294,,38,,,,0*51
$GLGSV,2,1,07,78,73,266,27,87,49,046,26,77,33,162,,79,27,322,,1*79
$GLGSV,2,2,07,71,14,046,,70,13,348,,81,07,227,,1*4D
$GNGLL,5429.4108,N,00943.9076,E,132148.000,A,A*4B
$GPTXT,01,01,02,ANTSTATUS=OPEN*2B
$GNRMC,132148.000,A,5429.4108,N,00943.9076,E,0.00,358.62,180226,,,A,V*03
$GPVTG,358.62,T,,M,0.00,N,0.00,K,A*37
$GPGGA,132148.000,5429.4108,N,00943.9076,E,1,5,1.76,26.5,M,45.0,M,,*65
$GNGSA,A,3,16,18,26,29,,,,,,,,,2.02,1.76,0.99,1*00
$GNGSA,A,3,87,,,,,,,,,,,,2.02,1.76,0.99,2*0D
$GPGSV,4,1,14,26,70,239,21,18,67,156,21,16,46,295,26,29,37,081,17,0*6B
$GPGSV,4,2,14,31,32,228,,05,26,051,17,27,15,266,16,28,13,203,,0*63
$GPGSV,4,3,14,21,11,026,15,23,10,147,,25,05,137,,09,04,322,,0*6F
$GPGSV,4,4,14,04,01,294,,38,,,,0*51
$GLGSV,2,1,07,78,73,266,27,87,49,046,26,77,33,162,,79,27,322,,1*79
$GLGSV,2,2,07,71,14,046,,70,13,348,,81,07,227,,1*4D
$GNGLL,5429.4108,N,00943.9076,E,132148.000,A,A*4B
$GPTXT,01,01,02,ANTSTATUS=OPEN*2B
$GNRMC,132148.000,A,5429.4108,N,00943.9076,E,0.00,358.62,180226,,,A,V*03
$GPVTG,358.62,T,,M,0.00,N,0.00,K,A*37
$GPGGA,132148.000,5429.4108,N,00943.9076,E,1,5,1.76,26.5,M,45.0,M,,*65
$GNGSA,A,3,16,18,26,29,,,,,,,,,2.02,1.76,0.99,1*00
$GNGSA,A,3,87,,,,,,,,,,,,2.02,1.76,0.99,2*0D
$GPGSV,4,1,14,26,70,239,21,18,67,156,21,16,46,295,26,29,37,081,17,0*6B
$GPGSV,4,2,14,31,32,228,,05,26,051,17,27,15,266,16,28,13,203,,0*63
$GPGSV,4,3,14,21,11,026,15,23,10,147,,25,05,137,,09,04,322,,0*6F
$GPGSV,4,4,14,04,01,294,,38,,,,0*51
$GLGSV,2,1,07,78,73,266,27,87,49,046,26,77,33,162,,79,27,322,,1*79
$GLGSV,2,2,07,71,14,046,,70,13,348,,81,07,227,,1*4D
$GNGLL,5429.4108,N,00943.9076,E,132148.000,A,A*4B
$GPTXT,01,01,02,ANTSTATUS=OPEN*2B
$GNRMC,132148.000,A,5429.4108,N,00943.9076,E,0.00,358.62,180226,,,A,V*03
$GPVTG,358.62,T,,M,0.00,N,0.00,K,A*37
$GPGGA,132148.000,5429.4108,N,00943.9076,E,1,5,1.76,26.5,M,45.0,M,,*65
$GNGSA,A,3,16,18,26,29,,,,,,,,,2.02,1.76,0.99,1*00
$GNGSA,A,3,87,,,,,,,,,,,,2.02,1.76,0.99,2*0D
$GPGSV,4,1,14,26,70,239,21,18,67,156,21,16,46,295,26,29,37,081,17,0*6B
$GPGSV,4,2,14,31,32,228,,05,26,051,17,27,15,266,16,28,13,203,,0*63
$GPGSV,4,3,14,21,11,026,15,23,10,147,,25,05,137,,09,04,322,,0*6F
$GPGSV,4,4,14,04,01,294,,38,,,,0*51
$GLGSV,2,1,07,78,73,266,27,87,49,046,26,77,33,162,,79,27,322,,1*79
$GLGSV,2,2,07,71,14,046,,70,13,348,,81,07,227,,1*4D
$GNGLL,5429.4108,N,00943.9076,E,132148.000,A,A*4B
$GPTXT,01,01,02,ANTSTATUS=OPEN*2B
$GNRMC,132148.000,A,5429.4108,N,00943.9076,E,0.00,358.62,180226,,,A,V*03
$GPVTG,358.62,T,,M,0.00,N,0.00,K,A*37
$GPGGA,132148.000,5429.4108,N,00943.9076,E,1,5,1.76,26.5,M,45.0,M,,*65
$GNGSA,A,3,16,18,26,29,,,,,,,,,2.02,1.76,0.99,1*00
$GNGSA,A,3,87,,,,,,,,,,,,2.02,1.76,0.99,2*0D
$GPGSV,4,1,14,26,70,239,21,18,67,156,21,16,46,295,26,29,37,081,17,0*6B
$GPGSV,4,2,14,31,32,228,,05,26,051,17,27,15,266,16,28,13,203,,0*63
$GPGSV,4,3,14,21,11,026,15,23,10,147,,25,05,137,,09,04,322,,0*6F
$GPGSV,4,4,14,04,01,294,,38,,,,0*51
$GLGSV,2,1,07,78,73,266,27,87,49,046,26,77,33,162,,79,27,322,,1*79
$GLGSV,2,2,07,71,14,046,,70,13,348,,81,07,227,,1*4D
$GNGLL,5429.4108,N,00943.9076,E,132148.000,A,A*4B
$GPTXT,01,01,02,ANTSTATUS=OPEN*2B
$GNRMC,132148.000,A,5429.4108,N,00943.9076,E,0.00,358.62,180226,,,A,V*03
$GPVTG,358.62,T,,M,0.00,N,0.00,K,A*37
$GPGGA,132148.000,5429.4108,N,00943.9076,E,1,5,1.76,26.5,M,45.0,M,,*65
$GNGSA,A,3,16,18,26,29,,,,,,,,,2.02,1.76,0.99,1*00
$GNGSA,A,3,87,,,,,,,,,,,,2.02,1.76,0.99,2*0D
$GPGSV,4,1,14,26,70,239,21,18,67,156,21,16,46,295,26,29,37,081,17,0*6B
$GPGSV,4,2,14,31,32,228,,05,26,051,17,27,15,266,16,28,13,203,,0*63
$GPGSV,4,3,14,21,11,026,15,23,10,147,,25,05,137,,09,04,322,,0*6F
$GPGSV,4,4,14,04,01,294,,38,,,,0*51
$GLGSV,2,1,07,78,73,266,27,87,49,046,26,77,33,162,,79,27,322,,1*79
$GLGSV,2,2,07,71,14,046,,70,13,348,,81,07,227,,1*4D
$GNGLL,5429.4108,N,00943.9076,E,132148.000,A,A*4B
$GPTXT,01,01,02,ANTSTATUS=OPEN*2B
$GNRMC,132148.000,A,5429.4108,N,00943.9076,E,0.00,358.62,180226,,,A,V*03
$GPVTG,358.62,T,,M,0.00,N,0.00,K,A*37
$GPGGA,132148.000,5429.4108,N,00943.9076,E,1,5,1.76,26.5,M,45.0,M,,*65
$GNGSA,A,3,16,18,26,29,,,,,,,,,2.02,1.76,0.99,1*00
$GNGSA,A,3,87,,,,,,,,,,,,2.02,1.76,0.99,2*0D
$GPGSV,4,1,14,26,70,239,21,18,67,156,21,16,46,295,26,29,37,081,17,0*6B
$GPGSV,4,2,14,31,32,228,,05,26,051,17,27,15,266,16,28,13,203,,0*63
$GPGSV,4,3,14,21,11,026,15,23,10,147,,25,05,137,,09,04,322,,0*6F
$GPGSV,4,4,14,04,01,294,,38,,,,0*51
$GLGSV,2,1,07,78,73,266,27,87,49,046,26,77,33,162,,79,27